$GPRMC,022718.00,A,3731.02531,N,07624.98035,W,0.050,0.00,201018,10.90,W,A*0F
$GPVTG,0.00,T,10.90,M,0.050,N,0.093,K,A*14
$GPGGA,022718.00,3731.02531,N,07624.98035,W,1,09,0.93,15.9,M,-35.6,M,,*50
$GPGSA,A,3,26,32,22,29,23,31,03,16,14,,,,1.79,0.93,1.52*0D
$GPGSV,3,1,11,03,37,268,34,09,04,313,,14,40,128,20,16,61,208,21*7A
$GPGSV,3,2,11,22,34,242,31,23,28,312,36,26,85,078,42,27,07,172,*71
$GPGSV,3,3,11,29,18,051,31,31,47,057,28,32,17,134,33*45
$GPGLL,3731.02531,N,07624.98035,W,022718.00,A,A*76
$GPGST,022718.00,30,,,,2.8,2.0,3.2*53
$GPRMC,022719.00,A,3731.02522,N,07624.98031,W,0.026,0.00,201018,10.90,W,A*09
$GPVTG,0.00,T,10.90,M,0.026,N,0.048,K,A*13
$GPGGA,022719.00,3731.02522,N,07624.98031,W,1,09,0.93,16.1,M,-35.6,M,,*5C
$GPGSA,A,3,26,32,22,29,23,31,03,16,14,,,,1.79,0.93,1.52*0D
$GPGSV,3,1,11,03,37,268,34,09,04,313,,14,40,128,20,16,61,208,21*7A
$GPGSV,3,2,11,22,34,242,31,23,28,312,36,26,85,078,42,27,07,172,*71
$GPGSV,3,3,11,29,18,051,31,31,47,057,28,32,17,134,33*45
$GPGLL,3731.02522,N,07624.98031,W,022719.00,A,A*71
$GPGST,022719.00,30,,,,2.8,2.0,3.2*52
$GPRMC,022720.00,A,3731.02518,N,07624.98030,W,0.038,0.00,201018,10.90,W,A*04
$GPVTG,0.00,T,10.90,M,0.038,N,0.071,K,A*16
$GPGGA,022720.00,3731.02518,N,07624.98030,W,1,09,0.93,16.2,M,-35.6,M,,*5D
$GPGSA,A,3,26,32,22,29,23,31,03,16,14,,,,1.79,0.93,1.52*0D
$GPGSV,3,1,11,03,37,268,34,09,04,313,,14,40,128,22,16,61,208,23*7A
$GPGSV,3,2,11,22,34,242,30,23,28,312,34,26,85,078,42,27,07,172,*72
$GPGSV,3,3,11,29,18,051,31,31,47,057,28,32,17,134,31*47
$GPGLL,3731.02518,N,07624.98030,W,022720.00,A,A*73
$GPGST,022720.00,28,,,,2.8,2.0,3.2*51
$GPRMC,022721.00,A,3731.02518,N,07624.98028,W,0.139,0.00,201018,10.90,W,A*0C
$GPVTG,0.00,T,10.90,M,0.139,N,0.258,K,A*1F
$GPGGA,022721.00,3731.02518,N,07624.98028,W,1,09,0.93,16.3,M,-35.6,M,,*54
$GPGSA,A,3,26,32,22,29,23,31,03,16,14,,,,1.79,0.93,1.52*0D
$GPGSV,3,1,11,03,37,268,34,09,04,313,,14,40,128,25,16,61,208,25*7B
$GPGSV,3,2,11,22,34,242,30,23,28,312,34,26,85,078,42,27,07,172,*72
$GPGSV,3,3,11,29,18,051,33,31,47,057,27,32,17,134,30*4B
$GPGLL,3731.02518,N,07624.98028,W,022721.00,A,A*7B
$GPGST,022721.00,26,,,,2.9,2.0,3.2*5F
$GPRMC,022722.00,A,3731.02517,N,07624.98027,W,0.086,0.00,201018,10.90,W,A*0A
$GPVTG,0.00,T,10.90,M,0.086,N,0.159,K,A*18
$GPGGA,022722.00,3731.02517,N,07624.98027,W,1,09,0.93,16.4,M,-35.6,M,,*50
$GPGSA,A,3,26,32,22,29,23,31,03,16,14,,,,1.78,0.93,1.52*0C
$GPGSV,3,1,11,03,37,268,34,09,04,313,,14,40,128,23,16,61,208,26*7E
$GPGSV,3,2,11,22,34,242,30,23,28,312,32,26,85,078,42,27,07,172,*74
$GPGSV,3,3,11,29,18,051,33,31,47,057,27,32,17,134,30*4B
$GPGLL,3731.02517,N,07624.98027,W,022722.00,A,A*78
$GPGST,022722.00,27,,,,2.9,2.0,3.2*5D
$GPRMC,022723.00,A,3731.02514,N,07624.98027,W,0.026,0.00,201018,10.90,W,A*02
$GPVTG,0.00,T,10.90,M,0.026,N,0.047,K,A*1C
$GPGGA,022723.00,3731.02514,N,07624.98027,W,1,09,0.93,16.4,M,-35.6,M,,*52
$GPGSA,A,3,26,32,22,29,23,31,03,16,14,,,,1.78,0.93,1.52*0C
$GPGSV,3,1,11,03,37,268,34,09,04,313,,14,40,128,25,16,61,208,25*7B
$GPGSV,3,2,11,22,34,242,29,23,28,312,33,26,85,078,43,27,07,172,*7C
$GPGSV,3,3,11,29,18,051,32,31,47,057,26,32,17,134,31*4A
$GPGLL,3731.02514,N,07624.98027,W,022723.00,A,A*7A
$GPGST,022723.00,27,,,,2.9,2.0,3.2*5C
$GPRMC,022724.00,A,3731.02507,N,07624.98027,W,0.016,0.00,201018,10.90,W,A*04
$GPVTG,0.00,T,10.90,M,0.016,N,0.030,K,A*1F
$GPGGA,022724.00,3731.02507,N,07624.98027,W,1,09,0.93,16.4,M,-35.6,M,,*57
$GPGSA,A,3,26,32,22,29,23,31,03,16,14,,,,1.78,0.93,1.52*0C
$GPGSV,3,1,11,03,37,268,35,09,04,313,,14,40,128,25,16,61,208,24*7B
$GPGSV,3,2,11,22,34,242,31,23,28,312,33,26,85,078,42,27,07,172,*74
$GPGSV,3,3,11,29,18,051,32,31,47,057,28,32,17,134,33*46
$GPGLL,3731.02507,N,07624.98027,W,022724.00,A,A*7F
$GPGST,022724.00,25,,,,2.9,2.0,3.2*59
$GPRMC,022725.00,A,3731.02499,N,07624.98027,W,0.034,0.00,201018,10.90,W,A*03
$GPVTG,0.00,T,10.90,M,0.034,N,0.063,K,A*19
$GPGGA,022725.00,3731.02499,N,07624.98027,W,1,09,0.93,16.3,M,-35.6,M,,*57
$GPGSA,A,3,26,32,22,29,23,31,03,16,14,,,,1.78,0.93,1.52*0C
$GPGSV,3,1,11,03,37,268,34,09,04,313,,14,40,128,28,16,62,208,22*72
$GPGSV,3,2,11,22,34,242,29,23,28,312,33,26,85,078,42,27,07,172,*7D
$GPGSV,3,3,11,29,18,051,31,31,47,057,33,32,17,134,34*48
$GPGLL,3731.02499,N,07624.98027,W,022725.00,A,A*78
$GPGST,022725.00,25,,,,2.9,2.0,3.2*58
$GPRMC,022726.00,A,3731.02492,N,07624.98027,W,0.013,0.00,201018,10.90,W,A*0E
$GPVTG,0.00,T,10.90,M,0.013,N,0.025,K,A*1E
$GPGGA,022726.00,3731.02492,N,07624.98027,W,1,09,0.93,16.3,M,-35.6,M,,*5F
$GPGSA,A,3,26,32,22,29,23,31,03,16,14,,,,1.78,0.93,1.52*0C
$GPGSV,3,1,11,03,37,268,34,09,04,313,,14,40,128,28,16,62,208,22*72
$GPGSV,3,2,11,22,34,242,29,23,28,312,34,26,85,078,42,27,07,172,*7A
$GPGSV,3,3,11,29,18,051,32,31,47,057,31,32,17,134,34*49
$GPGLL,3731.02492,N,07624.98027,W,022726.00,A,A*70
$GPGST,022726.00,25,,,,2.9,2.0,3.2*5B
$GPRMC,022727.00,A,3731.02486,N,07624.98027,W,0.056,0.00,201018,10.90,W,A*0B
$GPVTG,0.00,T,10.90,M,0.056,N,0.104,K,A*1D
$GPGGA,022727.00,3731.02486,N,07624.98027,W,1,09,0.93,16.3,M,-35.6,M,,*5B
$GPGSA,A,3,26,32,22,29,23,31,03,16,14,,,,1.78,0.93,1.52*0C
$GPGSV,3,1,11,03,37,268,34,09,04,313,,14,40,128,28,16,62,208,22*72
$GPGSV,3,2,11,22,34,242,29,23,28,312,33,26,85,078,42,27,07,172,*7D
$GPGSV,3,3,11,29,18,051,32,31,47,057,31,32,17,134,34*49
$GPGLL,3731.02486,N,07624.98027,W,022727.00,A,A*74
$GPGST,022727.00,25,,,,2.9,2.0,3.2*5A
$GPRMC,022728.00,A,3731.02480,N,07624.98027,W,0.039,0.00,201018,10.90,W,A*0B
$GPVTG,0.00,T,10.90,M,0.039,N,0.072,K,A*14
$GPGGA,022728.00,3731.02480,N,07624.98027,W,1,09,0.93,16.2,M,-35.6,M,,*53
$GPGSA,A,3,26,32,22,29,23,31,03,16,14,,,,1.78,0.93,1.52*0C
$GPGSV,3,1,11,03,37,268,34,09,04,313,,14,40,128,28,16,62,208,22*72
$GPGSV,3,2,11,22,34,242,28,23,28,312,32,26,85,078,42,27,07,172,*7D
$GPGSV,3,3,11,29,18,051,33,31,47,057,30,32,17,134,34*49
$GPGLL,3731.02480,N,07624.98027,W,022728.00,A,A*7D
$GPGST,022728.00,25,,,,2.9,2.0,3.2*55
$GPRMC,022729.00,A,3731.02474,N,07624.98028,W,0.019,0.00,201018,10.90,W,A*0C
$GPVTG,0.00,T,10.90,M,0.019,N,0.036,K,A*16
$GPGGA,022729.00,3731.02474,N,07624.98028,W,1,09,0.93,16.2,M,-35.6,M,,*56
$GPGSA,A,3,26,32,22,29,23,31,03,16,14,,,,1.78,0.93,1.52*0C
$GPGSV,3,1,11,03,37,268,34,09,04,313,,14,40,128,28,16,62,208,22*72
$GPGSV,3,2,11,22,34,242,29,23,28,312,33,26,85,078,43,27,07,172,*7C
$GPGSV,3,3,11,29,18,051,33,31,47,057,30,32,17,134,34*49
$GPGLL,3731.02474,N,07624.98028,W,022729.00,A,A*78
$GPGST,022729.00,25,,,,2.9,2.0,3.2*54
$GPRMC,022730.00,A,3731.02467,N,07624.98031,W,0.051,0.00,201018,10.90,W,A*02
$GPVTG,0.00,T,10.90,M,0.051,N,0.094,K,A*12
$GPGGA,022730.00,3731.02467,N,07624.98031,W,1,09,0.93,16.1,M,-35.6,M,,*57
$GPGSA,A,3,26,32,22,29,23,31,03,16,14,,,,1.78,0.93,1.52*0C
$GPGSV,3,1,11,03,37,268,34,09,04,313,,14,40,128,29,16,62,208,22*73
$GPGSV,3,2,11,22,34,242,30,23,28,312,32,26,85,078,43,27,07,172,23*74
$GPGSV,3,3,11,29,18,051,33,31,47,057,30,32,17,134,34*49
$GPGLL,3731.02467,N,07624.98031,W,022730.00,A,A*7A
$GPGST,022730.00,25,,,,2.8,2.0,3.2*5D
$GPRMC,022731.00,A,3731.02462,N,07624.98034,W,0.004,0.00,201018,10.90,W,A*03
$GPVTG,0.00,T,10.90,M,0.004,N,0.008,K,A*17
$GPGGA,022731.00,3731.02462,N,07624.98034,W,1,09,0.93,16.0,M,-35.6,M,,*57
$GPGSA,A,3,26,32,22,29,23,31,03,16,14,,,,1.78,0.93,1.52*0C
$GPGSV,3,1,11,03,37,268,34,09,04,313,,14,40,128,29,16,62,208,22*73
$GPGSV,3,2,11,22,34,241,31,23,28,312,32,26,85,078,43,27,07,172,22*77
$GPGSV,3,3,11,29,18,051,34,31,47,057,29,32,17,134,34*46
$GPGLL,3731.02462,N,07624.98034,W,022731.00,A,A*7B
$GPGST,022731.00,25,,,,2.8,2.0,3.2*5C
$GPRMC,022732.00,A,3731.02456,N,07624.98037,W,0.012,0.00,201018,10.90,W,A*03
$GPVTG,0.00,T,10.90,M,0.012,N,0.023,K,A*19
$GPGGA,022732.00,3731.02456,N,07624.98037,W,1,09,0.93,16.0,M,-35.6,M,,*50
$GPGSA,A,3,26,32,22,29,23,31,03,16,14,,,,1.78,0.93,1.52*0C
$GPGSV,3,1,11,03,37,268,34,09,04,313,,14,40,128,29,16,62,208,21*70
$GPGSV,3,2,11,22,34,241,31,23,28,312,32,26,85,078,43,27,07,172,21*74
$GPGSV,3,3,11,29,18,051,34,31,47,057,29,32,17,134,34*46
$GPGLL,3731.02456,N,07624.98037,W,022732.00,A,A*7C
$GPGST,022732.00,25,,,,2.8,2.0,3.1*5C
$GPRMC,022733.00,A,3731.02451,N,07624.98040,W,0.024,0.00,201018,10.90,W,A*00
$GPVTG,0.00,T,10.90,M,0.024,N,0.044,K,A*1D
$GPGGA,022733.00,3731.02451,N,07624.98040,W,1,09,0.93,15.9,M,-35.6,M,,*5C
$GPGSA,A,3,26,32,22,29,23,31,03,16,14,,,,1.78,0.93,1.52*0C
$GPGSV,3,1,11,03,37,268,34,09,04,313,,14,40,128,29,16,62,208,20*71
$GPGSV,3,2,11,22,34,241,31,23,28,312,32,26,85,078,43,27,07,172,21*74
$GPGSV,3,3,11,29,18,051,33,31,47,057,29,32,17,134,34*41
$GPGLL,3731.02451,N,07624.98040,W,022733.00,A,A*7A
$GPGST,022733.00,31,,,,2.8,2.0,3.1*58
$GPRMC,022734.00,A,3731.02445,N,07624.98044,W,0.020,0.00,201018,10.90,W,A*02
$GPVTG,0.00,T,10.90,M,0.020,N,0.037,K,A*1D
$GPGGA,022734.00,3731.02445,N,07624.98044,W,1,09,0.93,15.8,M,-35.6,M,,*5B
$GPGSA,A,3,26,32,22,29,23,31,03,16,14,,,,1.78,0.93,1.52*0C
$GPGSV,3,1,11,03,37,268,34,09,04,313,,14,40,128,30,16,62,208,20*79
$GPGSV,3,2,11,22,34,241,31,23,28,312,32,26,85,078,43,27,07,172,21*74
$GPGSV,3,3,11,29,18,051,34,31,47,057,30,32,17,134,34*4E
$GPGLL,3731.02445,N,07624.98044,W,022734.00,A,A*7C
$GPGST,022734.00,30,,,,2.8,2.0,3.1*5E
$GPRMC,022735.00,A,3731.02438,N,07624.98047,W,0.046,0.00,201018,10.90,W,A*0A
$GPVTG,0.00,T,10.90,M,0.046,N,0.086,K,A*17
$GPGGA,022735.00,3731.02438,N,07624.98047,W,1,09,0.93,15.8,M,-35.6,M,,*53
$GPGSA,A,3,26,32,22,29,23,31,03,16,14,,,,1.78,0.93,1.52*0C
$GPGSV,3,1,11,03,37,268,34,09,04,313,,14,40,128,30,16,62,208,20*79
$GPGSV,3,2,11,22,34,241,30,23,28,312,32,26,84,073,43,27,07,172,20*7E
$GPGSV,3,3,11,29,18,051,34,31,47,057,30,32,17,134,34*4E
$GPGLL,3731.02438,N,07624.98047,W,022735.00,A,A*74
$GPGST,022735.00,30,,,,2.8,2.0,3.1*5F
$GPRMC,022736.00,A,3731.02434,N,07624.98050,W,0.013,0.00,201018,10.90,W,A*03
$GPVTG,0.00,T,10.90,M,0.013,N,0.023,K,A*18
$GPGGA,022736.00,3731.02434,N,07624.98050,W,1,09,0.93,15.7,M,-35.6,M,,*55
$GPGSA,A,3,26,32,22,29,23,31,03,16,14,,,,1.78,0.93,1.52*0C
$GPGSV,3,1,11,03,37,268,34,09,04,313,,14,40,128,30,16,62,208,19*73
$GPGSV,3,2,11,22,34,241,30,23,28,312,32,26,84,073,43,27,08,172,20*71
$GPGSV,3,3,11,29,18,051,34,31,47,057,30,32,17,134,34*4E
$GPGLL,3731.02434,N,07624.98050,W,022736.00,A,A*7D
$GPGST,022736.00,31,,,,2.8,2.0,3.1*5D
$GPRMC,022737.00,A,3731.02430,N,07624.98054,W,0.041,0.00,201018,10.90,W,A*05
$GPVTG,0.00,T,10.90,M,0.041,N,0.076,K,A*1F
$GPGGA,022737.00,3731.02430,N,07624.98054,W,1,09,0.93,15.6,M,-35.6,M,,*55
$GPGSA,A,3,26,32,22,29,23,31,03,16,14,,,,1.78,0.93,1.52*0C
$GPGSV,3,1,11,03,37,268,34,09,04,313,,14,40,128,31,16,62,208,20*78
$GPGSV,3,2,11,22,34,241,30,23,28,312,32,26,84,073,43,27,08,172,19*7B
$GPGSV,3,3,11,29,18,051,34,31,47,057,30,32,17,134,33*49
$GPGLL,3731.02430,N,07624.98054,W,022737.00,A,A*7C
$GPGST,022737.00,30,,,,2.8,2.0,3.1*5D
$GPRMC,022738.00,A,3731.02427,N,07624.98058,W,0.069,0.00,201018,10.90,W,A*0A
$GPVTG,0.00,T,10.90,M,0.069,N,0.129,K,A*1E
$GPGGA,022738.00,3731.02427,N,07624.98058,W,1,09,0.93,15.5,M,-35.6,M,,*53
$GPGSA,A,3,26,32,22,29,23,31,03,16,14,,,,1.78,0.93,1.52*0C
$GPGSV,3,1,11,03,37,268,34,09,04,313,,14,40,128,31,16,62,208,21*79
$GPGSV,3,2,11,22,34,241,30,23,28,312,32,26,84,073,43,27,08,172,20*71
$GPGSV,3,3,11,29,18,051,34,31,47,057,30,32,17,134,33*49
$GPGLL,3731.02427,N,07624.98058,W,022738.00,A,A*79
$GPGST,022738.00,25,,,,2.8,2.0,3.1*56
$GPRMC,022739.00,A,3731.02423,N,07624.98064,W,0.020,0.00,201018,10.90,W,A*0D
$GPVTG,0.00,T,10.90,M,0.020,N,0.037,K,A*1D
$GPGGA,022739.00,3731.02423,N,07624.98064,W,1,09,0.93,15.4,M,-35.6,M,,*58
$GPGSA,A,3,26,32,22,29,23,31,03,16,14,,,,1.78,0.93,1.52*0C
$GPGSV,3,1,11,03,37,268,34,09,04,313,,14,40,128,31,16,62,208,22*7A
$GPGSV,3,2,11,22,34,241,30,23,28,312,32,26,84,073,43,27,08,172,20*71
$GPGSV,3,3,11,29,18,051,34,31,47,057,30,32,17,134,34*4E
$GPGLL,3731.02423,N,07624.98064,W,022739.00,A,A*73
$GPGST,022739.00,24,,,,2.8,2.0,3.1*56
$GPRMC,022740.00,A,3731.02417,N,07624.98069,W,0.019,0.00,201018,10.90,W,A*03
$GPVTG,0.00,T,10.90,M,0.019,N,0.035,K,A*15
$GPGGA,022740.00,3731.02417,N,07624.98069,W,1,09,0.93,15.2,M,-35.6,M,,*5A
$GPGSA,A,3,26,32,22,29,23,31,03,16,14,,,,1.78,0.93,1.52*0C
$GPGSV,3,1,11,03,37,268,34,09,04,313,,14,40,128,31,16,62,208,22*7A
$GPGSV,3,2,11,22,34,241,30,23,28,312,32,26,84,073,43,27,08,172,21*70
$GPGSV,3,3,11,29,18,051,34,31,47,058,30,32,17,134,34*41
$GPGLL,3731.02417,N,07624.98069,W,022740.00,A,A*77
$GPGST,022740.00,24,,,,2.7,2.0,3.1*57
$GPRMC,022741.00,A,3731.02413,N,07624.98075,W,0.028,0.00,201018,10.90,W,A*09
$GPVTG,0.00,T,10.90,M,0.028,N,0.051,K,A*15
$GPGGA,022741.00,3731.02413,N,07624.98075,W,1,09,0.93,15.1,M,-35.6,M,,*51
$GPGSA,A,3,26,32,22,29,23,31,03,16,14,,,,1.78,0.93,1.52*0C
$GPGSV,3,1,11,03,37,268,35,09,04,313,,14,40,128,31,16,62,208,23*7A
$GPGSV,3,2,11,22,34,241,30,23,28,312,32,26,84,073,43,27,08,172,21*70
$GPGSV,3,3,11,29,18,051,34,31,47,058,31,32,16,134,33*46
$GPGLL,3731.02413,N,07624.98075,W,022741.00,A,A*7F
$GPGST,022741.00,23,,,,2.7,1.9,3.1*5B
$GPRMC,022742.00,A,3731.02409,N,07624.98081,W,0.005,0.00,201018,10.90,W,A*05
$GPVTG,0.00,T,10.90,M,0.005,N,0.009,K,A*17
$GPGGA,022742.00,3731.02409,N,07624.98081,W,1,09,0.93,15.0,M,-35.6,M,,*53
$GPGSA,A,3,26,32,22,29,23,31,03,16,14,,,,1.78,0.93,1.52*0C
$GPGSV,3,1,11,03,37,268,35,09,04,313,,14,40,128,32,16,62,208,24*7E
$GPGSV,3,2,11,22,34,241,30,23,28,312,32,26,84,073,43,27,08,172,20*71
$GPGSV,3,3,11,29,18,051,34,31,47,058,30,32,16,134,33*47
$GPGLL,3731.02409,N,07624.98081,W,022742.00,A,A*7C
$GPGST,022742.00,22,,,,2.7,1.9,3.1*59
!AIVDO,1,1,,B,H52ap3@<4iU1<t0000000000000,2*75
$GPRMC,022743.00,A,3731.02404,N,07624.98087,W,0.033,0.00,201018,10.90,W,A*0A
$GPVTG,0.00,T,10.90,M,0.033,N,0.060,K,A*1D
$GPGGA,022743.00,3731.02404,N,07624.98087,W,1,09,0.93,14.9,M,-35.6,M,,*51
$GPGSA,A,3,26,32,22,29,23,31,03,16,14,,,,1.78,0.93,1.52*0C
$GPGSV,3,1,11,03,37,268,35,09,04,313,,14,40,128,32,16,62,208,24*7E
$GPGSV,3,2,11,22,34,241,30,23,28,312,32,26,84,073,43,27,08,172,21*70
$GPGSV,3,3,11,29,18,051,34,31,47,058,30,32,16,134,33*47
$GPGLL,3731.02404,N,07624.98087,W,022743.00,A,A*76
$GPGST,022743.00,22,,,,2.7,1.9,3.0*59
!AIVDO,1,1,,B,H52ap3DTFC@83Lm00000000h6220,0*5B
$GPRMC,022744.00,A,3731.02400,N,07624.98093,W,0.012,0.00,201018,10.90,W,A*0F
$GPVTG,0.00,T,10.90,M,0.012,N,0.023,K,A*19
$GPGGA,022744.00,3731.02400,N,07624.98093,W,1,09,0.93,14.8,M,-35.6,M,,*56
$GPGSA,A,3,26,32,22,29,23,31,03,16,14,,,,1.78,0.93,1.52*0C
$GPGSV,3,1,11,03,37,268,35,09,04,313,,14,40,128,32,16,62,208,25*7F
$GPGSV,3,2,11,22,34,241,30,23,28,312,32,26,84,073,43,27,08,172,21*70
$GPGSV,3,3,11,29,18,051,34,31,47,058,30,32,16,134,33*47
$GPGLL,3731.02400,N,07624.98093,W,022744.00,A,A*70
$GPGST,022744.00,22,,,,2.7,1.9,3.0*5E
$GPRMC,022745.00,A,3731.02397,N,07624.98099,W,0.022,0.00,201018,10.90,W,A*0E
$GPVTG,0.00,T,10.90,M,0.022,N,0.040,K,A*1F
$GPGGA,022745.00,3731.02397,N,07624.98099,W,1,09,0.93,14.6,M,-35.6,M,,*5A
$GPGSA,A,3,26,32,22,29,23,31,03,16,14,,,,1.78,0.93,1.52*0C
$GPGSV,3,1,11,03,37,268,35,09,04,313,,14,40,128,32,16,62,208,24*7E
$GPGSV,3,2,11,22,34,241,31,23,28,312,32,26,84,073,43,27,08,172,21*71
$GPGSV,3,3,11,29,18,051,34,31,47,058,30,32,16,134,33*47
$GPGLL,3731.02397,N,07624.98099,W,022745.00,A,A*72
$GPGST,022745.00,22,,,,2.7,1.9,3.0*5F
$GPRMC,022746.00,A,3731.02395,N,07624.98104,W,0.019,0.00,201018,10.90,W,A*02
$GPVTG,0.00,T,10.90,M,0.019,N,0.035,K,A*15
$GPGGA,022746.00,3731.02395,N,07624.98104,W,1,09,0.93,14.5,M,-35.6,M,,*5D
$GPGSA,A,3,26,32,22,29,23,31,03,16,14,,,,1.78,0.93,1.52*0C
$GPGSV,3,1,11,03,37,268,34,09,04,313,,14,40,128,33,16,62,208,24*7E
$GPGSV,3,2,11,22,34,241,31,23,28,312,32,26,84,073,43,27,08,172,21*71
$GPGSV,3,3,11,29,18,051,34,31,47,058,30,32,16,134,33*47
$GPGLL,3731.02395,N,07624.98104,W,022746.00,A,A*76
$GPGST,022746.00,22,,,,2.7,1.9,3.0*5C
$GPRMC,022747.00,A,3731.02395,N,07624.98108,W,0.020,0.00,201018,10.90,W,A*05
$GPVTG,0.00,T,10.90,M,0.020,N,0.038,K,A*12
$GPGGA,022747.00,3731.02395,N,07624.98108,W,1,09,0.93,14.4,M,-35.6,M,,*51
$GPGSA,A,3,26,32,22,29,23,31,03,16,14,,,,1.78,0.93,1.52*0C
$GPGSV,3,1,11,03,37,268,34,09,04,313,,14,40,128,33,16,62,208,23*79
$GPGSV,3,2,11,22,34,241,31,23,28,312,32,26,84,073,43,27,08,172,21*71
$GPGSV,3,3,11,29,18,051,34,31,47,058,30,32,16,134,33*47
$GPGLL,3731.02395,N,07624.98108,W,022747.00,A,A*7B
$GPGST,022747.00,22,,,,2.7,1.9,3.0*5D
$GPRMC,022748.00,A,3731.02394,N,07624.98111,W,0.023,0.00,201018,10.90,W,A*00
$GPVTG,0.00,T,10.90,M,0.023,N,0.042,K,A*1C
$GPGGA,022748.00,3731.02394,N,07624.98111,W,1,09,0.93,14.2,M,-35.6,M,,*51
$GPGSA,A,3,26,32,22,29,23,31,03,16,14,,,,1.78,0.93,1.52*0C
$GPGSV,3,1,11,03,37,268,34,09,04,313,,14,40,128,33,16,62,208,23*79
$GPGSV,3,2,11,22,34,241,31,23,28,312,32,26,84,073,43,27,08,172,21*71
$GPGSV,3,3,11,29,18,051,34,31,47,058,30,32,16,134,33*47
$GPGLL,3731.02394,N,07624.98111,W,022748.00,A,A*7D
$GPGST,022748.00,22,,,,2.7,1.9,3.0*52
$GPRMC,022749.00,A,3731.02394,N,07624.98114,W,0.021,0.00,201018,10.90,W,A*06
$GPVTG,0.00,T,10.90,M,0.021,N,0.038,K,A*13
$GPGGA,022749.00,3731.02394,N,07624.98114,W,1,09,0.93,14.2,M,-35.6,M,,*55
$GPGSA,A,3,26,32,22,29,23,31,03,16,14,,,,1.78,0.93,1.52*0C
$GPGSV,3,1,11,03,37,268,34,09,04,313,,14,40,128,33,16,62,208,23*79
$GPGSV,3,2,11,22,34,241,31,23,28,312,32,26,84,073,43,27,08,172,21*71
$GPGSV,3,3,11,29,18,051,34,31,47,058,30,32,16,134,33*47
$GPGLL,3731.02394,N,07624.98114,W,022749.00,A,A*79
$GPGST,022749.00,22,,,,2.7,1.9,3.0*53
$GPRMC,022750.00,A,3731.02395,N,07624.98118,W,0.019,0.00,201018,10.90,W,A*08
$GPVTG,0.00,T,10.90,M,0.019,N,0.035,K,A*15
$GPGGA,022750.00,3731.02395,N,07624.98118,W,1,09,0.93,14.0,M,-35.6,M,,*52
$GPGSA,A,3,26,32,22,29,23,31,03,16,14,,,,1.78,0.93,1.52*0C
$GPGSV,3,1,11,03,37,268,34,09,04,313,,14,40,128,34,16,62,208,22*7F
$GPGSV,3,2,11,22,34,241,31,23,28,312,32,26,84,073,43,27,08,172,20*70
$GPGSV,3,3,11,29,18,051,34,31,47,058,30,32,16,134,33*47
$GPGLL,3731.02395,N,07624.98118,W,022750.00,A,A*7C
$GPGST,022750.00,23,,,,2.7,1.9,3.0*5A
$GPRMC,022751.00,A,3731.02395,N,07624.98121,W,0.018,0.00,201018,10.90,W,A*02
$GPVTG,0.00,T,10.90,M,0.018,N,0.033,K,A*12
$GPGGA,022751.00,3731.02395,N,07624.98121,W,1,09,0.93,14.0,M,-35.6,M,,*59
$GPGSA,A,3,26,32,22,29,23,31,03,16,14,,,,1.78,0.93,1.52*0C
$GPGSV,3,1,11,03,37,268,34,09,04,313,,14,40,128,34,16,62,208,22*7F
$GPGSV,3,2,11,22,34,241,31,23,28,312,32,26,84,073,43,27,08,172,20*70
$GPGSV,3,3,11,29,18,051,33,31,47,058,31,32,16,134,33*41
$GPGLL,3731.02395,N,07624.98121,W,022751.00,A,A*77
$GPGST,022751.00,23,,,,2.7,1.9,3.0*5B
$GPRMC,022752.00,A,3731.02395,N,07624.98124,W,0.004,0.00,201018,10.90,W,A*09
$GPVTG,0.00,T,10.90,M,0.004,N,0.008,K,A*17
$GPGGA,022752.00,3731.02395,N,07624.98124,W,1,09,0.93,13.9,M,-35.6,M,,*51
$GPGSA,A,3,26,32,22,29,23,31,03,16,14,,,,1.78,0.93,1.52*0C
$GPGSV,3,1,11,03,37,268,34,09,04,313,,14,40,128,34,16,62,208,22*7F
$GPGSV,3,2,11,22,34,241,30,23,28,312,32,26,84,073,43,27,08,172,20*71
$GPGSV,3,3,11,29,18,051,33,31,47,058,31,32,16,134,33*41
$GPGLL,3731.02395,N,07624.98124,W,022752.00,A,A*71
$GPGST,022752.00,23,,,,2.7,1.9,3.0*58
$GPRMC,022753.00,A,3731.02397,N,07624.98126,W,0.026,0.00,201018,10.90,W,A*08
$GPVTG,0.00,T,10.90,M,0.026,N,0.049,K,A*12
$GPGGA,022753.00,3731.02397,N,07624.98126,W,1,09,0.93,13.9,M,-35.6,M,,*50
$GPGSA,A,3,26,32,22,29,23,31,03,16,14,,,,1.78,0.93,1.52*0C
$GPGSV,3,1,11,03,37,268,34,09,04,313,,14,40,128,34,16,62,208,23*7E
$GPGSV,3,2,11,22,34,241,30,23,28,312,32,26,84,073,43,27,08,172,20*71
$GPGSV,3,3,11,29,18,051,32,31,47,058,31,32,16,134,33*40
$GPGLL,3731.02397,N,07624.98126,W,022753.00,A,A*70
$GPGST,022753.00,23,,,,2.7,1.9,3.0*59
$GPRMC,022754.00,A,3731.02399,N,07624.98128,W,0.012,0.00,201018,10.90,W,A*08
$GPVTG,0.00,T,10.90,M,0.012,N,0.023,K,A*19
$GPGGA,022754.00,3731.02399,N,07624.98128,W,1,09,0.93,13.9,M,-35.6,M,,*57
$GPGSA,A,3,26,32,22,29,23,31,03,16,14,,,,1.78,0.93,1.52*0C
$GPGSV,3,1,11,03,37,268,34,09,04,313,,14,40,128,34,16,62,208,23*7E
$GPGSV,3,2,11,22,34,241,30,23,28,312,32,26,84,073,43,27,08,172,20*71
$GPGSV,3,3,11,29,18,051,32,31,47,058,31,32,16,134,33*40
$GPGLL,3731.02399,N,07624.98128,W,022754.00,A,A*77
$GPGST,022754.00,23,,,,2.7,1.9,3.0*5E
$GPRMC,022755.00,A,3731.02400,N,07624.98131,W,0.033,0.00,201018,10.90,W,A*05
$GPVTG,0.00,T,10.90,M,0.033,N,0.062,K,A*1F
$GPGGA,022755.00,3731.02400,N,07624.98131,W,1,09,0.93,13.9,M,-35.6,M,,*59
$GPGSA,A,3,26,32,22,29,23,31,03,16,14,,,,1.78,0.93,1.52*0C
$GPGSV,3,1,11,03,37,268,34,09,04,313,,14,40,128,34,16,62,208,24*79
$GPGSV,3,2,11,22,34,241,30,23,28,312,32,26,84,073,43,27,08,172,20*71
$GPGSV,3,3,11,29,18,051,32,31,47,058,31,32,16,134,33*40
$GPGLL,3731.02400,N,07624.98131,W,022755.00,A,A*79
$GPGST,022755.00,22,,,,2.7,1.9,3.0*5E
$GPRMC,022756.00,A,3731.02403,N,07624.98133,W,0.034,0.00,201018,10.90,W,A*00
$GPVTG,0.00,T,10.90,M,0.034,N,0.062,K,A*18
$GPGGA,022756.00,3731.02403,N,07624.98133,W,1,09,0.93,13.9,M,-35.6,M,,*5B
$GPGSA,A,3,26,32,22,29,23,31,03,16,14,,,,1.78,0.93,1.52*0C
$GPGSV,3,1,11,03,37,268,34,09,04,313,,14,40,128,34,16,62,208,24*79
$GPGSV,3,2,11,22,34,241,29,23,28,312,32,26,84,073,43,27,08,172,21*78
$GPGSV,3,3,11,29,18,051,32,31,47,058,31,32,16,134,33*40
$GPGLL,3731.02403,N,07624.98133,W,022756.00,A,A*7B
$GPGST,022756.00,23,,,,2.7,1.9,3.0*5C
$GPRMC,022757.00,A,3731.02405,N,07624.98135,W,0.025,0.00,201018,10.90,W,A*01
$GPVTG,0.00,T,10.90,M,0.025,N,0.046,K,A*1E
$GPGGA,022757.00,3731.02405,N,07624.98135,W,1,09,0.93,14.0,M,-35.6,M,,*54
$GPGSA,A,3,26,32,22,29,23,31,03,16,14,,,,1.78,0.93,1.52*0C
$GPGSV,3,1,11,03,37,268,34,09,04,313,,14,40,128,34,16,62,208,23*7E
$GPGSV,3,2,11,22,34,241,29,23,28,312,32,26,84,073,43,27,08,172,19*73
$GPGSV,3,3,11,29,18,051,32,31,47,058,31,32,16,134,33*40
$GPGLL,3731.02405,N,07624.98135,W,022757.00,A,A*7A
$GPGST,022757.00,23,,,,2.7,1.9,3.0*5D
$GPRMC,022758.00,A,3731.02407,N,07624.98138,W,0.026,0.00,201018,10.90,W,A*02
$GPVTG,0.00,T,10.90,M,0.026,N,0.049,K,A*12
$GPGGA,022758.00,3731.02407,N,07624.98138,W,1,09,0.93,13.9,M,-35.6,M,,*5A
$GPGSA,A,3,26,32,22,29,23,31,03,16,14,,,,1.78,0.93,1.52*0C
$GPGSV,3,1,11,03,37,268,34,09,04,313,,14,40,128,34,16,62,208,23*7E
$GPGSV,3,2,11,22,34,241,29,23,28,312,32,26,84,073,43,27,08,172,18*72
$GPGSV,3,3,11,29,18,051,32,31,47,058,31,32,16,134,33*40
$GPGLL,3731.02407,N,07624.98138,W,022758.00,A,A*7A
$GPGST,022758.00,23,,,,2.7,1.9,3.1*53
$GPRMC,022759.00,A,3731.02410,N,07624.98140,W,0.015,0.00,201018,10.90,W,A*0A
$GPVTG,0.00,T,10.90,M,0.015,N,0.028,K,A*15
$GPGGA,022759.00,3731.02410,N,07624.98140,W,1,09,0.93,14.0,M,-35.6,M,,*5C
$GPGSA,A,3,26,32,22,29,23,31,03,16,14,,,,1.78,0.93,1.52*0C
$GPGSV,3,1,11,03,37,268,34,09,04,313,,14,40,128,34,16,62,208,23*7E
$GPGSV,3,2,11,22,34,241,29,23,28,312,32,26,84,073,43,27,08,172,19*73
$GPGSV,3,3,11,29,18,051,32,31,47,058,31,32,16,134,33*40
$GPGLL,3731.02410,N,07624.98140,W,022759.00,A,A*72
$GPGST,022759.00,23,,,,2.7,1.9,3.1*52
$GPRMC,022800.00,A,3731.02413,N,07624.98143,W,0.005,0.00,201018,10.90,W,A*08
$GPVTG,0.00,T,10.90,M,0.005,N,0.010,K,A*1F
$GPGGA,022800.00,3731.02413,N,07624.98143,W,1,09,0.93,14.0,M,-35.6,M,,*5F
$GPGSA,A,3,26,32,22,29,23,31,03,16,14,,,,1.78,0.93,1.52*0C
$GPGSV,3,1,11,03,37,268,34,09,04,313,,14,40,128,34,16,62,208,23*7E
$GPGSV,3,2,11,22,34,241,29,23,28,312,32,26,84,073,43,27,08,172,19*73
$GPGSV,3,3,11,29,18,051,31,31,47,058,31,32,16,134,33*43
$GPGLL,3731.02413,N,07624.98143,W,022800.00,A,A*71
$GPGST,022800.00,23,,,,2.7,1.9,3.1*51
$GPRMC,022801.00,A,3731.02416,N,07624.98145,W,0.012,0.00,201018,10.90,W,A*0C
$GPVTG,0.00,T,10.90,M,0.012,N,0.023,K,A*19
$GPGGA,022801.00,3731.02416,N,07624.98145,W,1,09,0.93,14.1,M,-35.6,M,,*5C
$GPGSA,A,3,26,32,22,29,23,31,03,16,14,,,,1.78,0.93,1.52*0C
$GPGSV,3,1,11,03,37,268,34,09,04,313,,14,40,128,34,16,62,208,22*7F
$GPGSV,3,2,11,22,34,241,30,23,28,312,32,26,84,073,43,27,08,172,19*7B
$GPGSV,3,3,11,29,18,051,30,31,47,058,32,32,16,134,32*40
$GPGLL,3731.02416,N,07624.98145,W,022801.00,A,A*73
$GPGST,022801.00,24,,,,2.7,1.9,3.1*57
$GPRMC,022802.00,A,3731.02419,N,07624.98149,W,0.022,0.00,201018,10.90,W,A*0F
$GPVTG,0.00,T,10.90,M,0.022,N,0.041,K,A*1E
$GPGGA,022802.00,3731.02419,N,07624.98149,W,1,09,0.93,14.2,M,-35.6,M,,*5F
$GPGSA,A,3,26,32,22,29,23,31,03,16,14,,,,1.78,0.93,1.52*0C
$GPGSV,3,1,11,03,37,268,34,09,04,313,,14,40,128,35,16,62,208,21*7D
$GPGSV,3,2,11,22,34,241,30,23,28,312,32,26,84,073,43,27,08,172,18*7A
$GPGSV,3,3,11,29,18,051,30,31,47,058,32,32,16,134,32*40
$GPGLL,3731.02419,N,07624.98149,W,022802.00,A,A*73
$GPGST,022802.00,25,,,,2.7,1.9,3.1*55
$GPRMC,022803.00,A,3731.02423,N,07624.98151,W,0.009,0.00,201018,10.90,W,A*07
$GPVTG,0.00,T,10.90,M,0.009,N,0.016,K,A*15
$GPGGA,022803.00,3731.02423,N,07624.98151,W,1,09,0.93,14.2,M,-35.6,M,,*5E
$GPGSA,A,3,26,32,22,29,23,31,03,16,14,,,,1.78,0.93,1.52*0C
$GPGSV,3,1,11,03,37,268,34,09,04,313,,14,40,128,35,16,62,208,20*7C
$GPGSV,3,2,11,22,34,241,30,23,28,312,33,26,84,073,43,27,08,172,18*7B
$GPGSV,3,3,11,29,18,051,30,31,47,058,32,32,16,134,32*40
$GPGLL,3731.02423,N,07624.98151,W,022803.00,A,A*72
$GPGST,022803.00,30,,,,2.7,1.9,3.1*50
$GPRMC,022804.00,A,3731.02427,N,07624.98154,W,0.014,0.00,201018,10.90,W,A*0D
$GPVTG,0.00,T,10.90,M,0.014,N,0.025,K,A*19
$GPGGA,022804.00,3731.02427,N,07624.98154,W,1,09,0.93,14.2,M,-35.6,M,,*58
$GPGSA,A,3,26,32,22,29,23,31,03,16,14,,,,1.78,0.93,1.52*0C
$GPGSV,3,1,11,03,37,268,34,09,04,313,,14,40,128,35,16,62,208,20*7C
$GPGSV,3,2,11,22,34,241,30,23,28,312,33,26,84,073,43,27,08,172,18*7B
$GPGSV,3,3,11,29,18,051,30,31,47,058,32,32,16,134,32*40
$GPGLL,3731.02427,N,07624.98154,W,022804.00,A,A*74
$GPGST,022804.00,30,,,,2.7,1.9,3.1*57
$GPRMC,022805.00,A,3731.02432,N,07624.98155,W,0.028,0.00,201018,10.90,W,A*06
$GPVTG,0.00,T,10.90,M,0.028,N,0.052,K,A*16
$GPGGA,022805.00,3731.02432,N,07624.98155,W,1,09,0.93,14.2,M,-35.6,M,,*5C
$GPGSA,A,3,26,32,22,29,23,31,03,16,14,,,,1.78,0.93,1.52*0C
$GPGSV,3,1,11,03,37,268,34,09,04,313,,14,40,128,35,16,62,208,19*76
$GPGSV,3,2,11,22,34,241,29,23,28,312,33,26,84,073,43,27,08,172,18*73
$GPGSV,3,3,11,29,18,051,30,31,47,058,32,32,16,134,32*40
$GPGLL,3731.02432,N,07624.98155,W,022805.00,A,A*70
$GPGST,022805.00,31,,,,2.7,1.9,3.1*57
$GPRMC,022806.00,A,3731.02436,N,07624.98157,W,0.026,0.00,201018,10.90,W,A*0D
$GPVTG,0.00,T,10.90,M,0.026,N,0.049,K,A*12
$GPGGA,022806.00,3731.02436,N,07624.98157,W,1,09,0.93,14.2,M,-35.6,M,,*59
$GPGSA,A,3,26,32,22,29,23,31,03,16,14,,,,1.78,0.93,1.52*0C
$GPGSV,3,1,11,03,37,268,34,09,04,313,,14,40,128,35,16,62,208,19*76
$GPGSV,3,2,11,22,34,241,29,23,28,312,33,26,84,073,43,27,08,172,18*73
$GPGSV,3,3,11,29,18,051,30,31,47,058,32,32,16,134,32*40
$GPGLL,3731.02436,N,07624.98157,W,022806.00,A,A*75
$GPGST,022806.00,31,,,,2.7,1.9,3.1*54
$GPRMC,022807.00,A,3731.02441,N,07624.98158,W,0.045,0.00,201018,10.90,W,A*06
$GPVTG,0.00,T,10.90,M,0.045,N,0.084,K,A*16
$GPGGA,022807.00,3731.02441,N,07624.98158,W,1,09,0.93,14.2,M,-35.6,M,,*57
$GPGSA,A,3,26,32,22,29,23,31,03,16,14,,,,1.78,0.93,1.52*0C
$GPGSV,3,1,11,03,37,268,34,09,04,313,,14,40,128,35,16,62,208,18*77
$GPGSV,3,2,11,22,34,241,29,23,28,312,33,26,84,073,43,27,08,172,17*7C
$GPGSV,3,3,11,29,18,051,30,31,47,058,32,32,16,134,32*40
$GPGLL,3731.02441,N,07624.98158,W,022807.00,A,A*7B
$GPGST,022807.00,31,,,,2.7,1.9,3.1*55
$GPRMC,022808.00,A,3731.02447,N,07624.98158,W,0.017,0.00,201018,10.90,W,A*08
$GPVTG,0.00,T,10.90,M,0.017,N,0.032,K,A*1C
$GPGGA,022808.00,3731.02447,N,07624.98158,W,1,09,0.93,14.3,M,-35.6,M,,*5F
$GPGSA,A,3,26,32,22,29,23,31,03,16,14,,,,1.78,0.93,1.52*0C
$GPGSV,3,1,11,03,37,268,34,09,04,313,,14,40,128,35,16,62,208,18*77
$GPGSV,3,2,11,22,34,241,29,23,28,312,33,26,84,073,43,27,08,172,18*73
$GPGSV,3,3,11,29,18,051,30,31,47,058,32,32,16,134,31*43
$GPGLL,3731.02447,N,07624.98158,W,022808.00,A,A*72
$GPGST,022808.00,31,,,,2.7,1.9,3.1*5A
$GPRMC,022809.00,A,3731.02453,N,07624.98160,W,0.046,0.00,201018,10.90,W,A*03
$GPVTG,0.00,T,10.90,M,0.046,N,0.085,K,A*14
$GPGGA,022809.00,3731.02453,N,07624.98160,W,1,09,0.93,14.4,M,-35.6,M,,*57
$GPGSA,A,3,26,32,22,29,23,31,03,16,14,,,,1.78,0.93,1.52*0C
$GPGSV,3,1,11,03,37,268,34,09,04,313,,14,40,128,35,16,62,208,18*77
$GPGSV,3,2,11,22,34,241,28,23,28,312,33,26,84,073,43,27,08,172,17*7D
$GPGSV,3,3,11,29,18,051,31,31,47,058,32,32,16,134,31*42
$GPGLL,3731.02453,N,07624.98160,W,022809.00,A,A*7D
$GPGST,022809.00,32,,,,2.7,1.9,3.1*58
$GPRMC,022810.00,A,3731.02459,N,07624.98161,W,0.051,0.00,201018,10.90,W,A*06
$GPVTG,0.00,T,10.90,M,0.051,N,0.095,K,A*13
$GPGGA,022810.00,3731.02459,N,07624.98161,W,1,09,0.93,14.4,M,-35.6,M,,*54
$GPGSA,A,3,26,32,22,29,23,31,03,16,14,,,,1.78,0.93,1.52*0C
$GPGSV,3,1,11,03,37,268,34,09,04,313,,14,40,128,35,16,62,208,16*79
$GPGSV,3,2,11,22,34,241,28,23,28,312,33,26,84,073,43,27,08,172,16*7C
$GPGSV,3,3,11,29,18,051,30,31,47,058,32,32,16,134,31*43
$GPGLL,3731.02459,N,07624.98161,W,022810.00,A,A*7E
$GPGST,022810.00,34,,,,2.7,1.9,3.2*55
$GPRMC,022811.00,A,3731.02466,N,07624.98161,W,0.024,0.00,201018,10.90,W,A*09
$GPVTG,0.00,T,10.90,M,0.024,N,0.044,K,A*1D
$GPGGA,022811.00,3731.02466,N,07624.98161,W,1,09,0.93,14.4,M,-35.6,M,,*59
$GPGSA,A,3,26,32,22,29,23,31,03,16,14,,,,1.78,0.93,1.52*0C
$GPGSV,3,1,11,03,37,268,33,09,04,313,,14,40,128,35,16,62,208,16*7E
$GPGSV,3,2,11,22,34,241,27,23,28,312,34,26,84,073,43,27,08,172,18*7A
$GPGSV,3,3,11,29,18,051,29,31,47,058,32,32,16,134,30*4A
$GPGLL,3731.02466,N,07624.98161,W,022811.00,A,A*73
$GPGST,022811.00,34,,,,2.7,1.9,3.2*54
$GPRMC,022812.00,A,3731.02472,N,07624.98162,W,0.029,0.00,201018,10.90,W,A*01
$GPVTG,0.00,T,10.90,M,0.029,N,0.054,K,A*11
$GPGGA,022812.00,3731.02472,N,07624.98162,W,1,09,0.93,14.4,M,-35.6,M,,*5C
$GPGSA,A,3,26,32,22,29,23,31,03,16,14,,,,1.78,0.93,1.52*0C
$GPGSV,3,1,11,03,37,268,34,09,04,313,,14,40,128,35,16,62,208,15*7A
$GPGSV,3,2,11,22,34,241,28,23,28,312,34,26,84,073,43,27,08,172,*7C
$GPGSV,3,3,11,29,18,051,29,31,47,058,32,32,16,134,31*4B
$GPGLL,3731.02472,N,07624.98162,W,022812.00,A,A*76
$GPGST,022812.00,35,,,,2.8,2.0,3.2*53
$GPRMC,022813.00,A,3731.02478,N,07624.98163,W,0.026,0.00,201018,10.90,W,A*04
$GPVTG,0.00,T,10.90,M,0.026,N,0.049,K,A*12
$GPGGA,022813.00,3731.02478,N,07624.98163,W,1,09,0.93,14.3,M,-35.6,M,,*51
$GPGSA,A,3,26,32,22,29,23,31,03,16,14,,,,1.78,0.93,1.52*0C
$GPGSV,3,1,11,03,37,268,34,09,04,313,,14,40,128,35,16,62,208,15*7A
$GPGSV,3,2,11,22,34,241,28,23,28,312,34,26,84,073,43,27,08,172,*7C
$GPGSV,3,3,11,29,18,051,30,31,47,058,33,32,16,134,31*42
$GPGLL,3731.02478,N,07624.98163,W,022813.00,A,A*7C
$GPGST,022813.00,34,,,,2.8,2.0,3.2*53
$GPRMC,022814.00,A,3731.02482,N,07624.98165,W,0.057,0.00,201018,10.90,W,A*06
$GPVTG,0.00,T,10.90,M,0.057,N,0.106,K,A*1E
$GPGGA,022814.00,3731.02482,N,07624.98165,W,1,09,0.93,14.3,M,-35.6,M,,*55
$GPGSA,A,3,26,32,22,29,23,31,03,16,14,,,,1.78,0.93,1.52*0C
$GPGSV,3,1,11,03,37,268,33,09,04,313,,14,40,128,35,16,62,208,15*7D
$GPGSV,3,2,11,22,34,241,27,23,28,312,34,26,84,073,43,27,08,172,*73
$GPGSV,3,3,11,29,18,051,29,31,47,058,33,32,16,134,31*4A
$GPGLL,3731.02482,N,07624.98165,W,022814.00,A,A*78
$GPGST,022814.00,35,,,,2.8,2.0,3.2*55
$GPRMC,022815.00,A,3731.02486,N,07624.98167,W,0.053,0.00,201018,10.90,W,A*05
$GPVTG,0.00,T,10.90,M,0.053,N,0.099,K,A*1D
$GPGGA,022815.00,3731.02486,N,07624.98167,W,1,09,0.93,14.2,M,-35.6,M,,*53
$GPGSA,A,3,26,32,22,29,23,31,03,16,14,,,,1.78,0.93,1.52*0C
$GPGSV,3,1,11,03,37,268,34,09,04,313,,14,40,128,35,16,62,208,13*7C
$GPGSV,3,2,11,22,34,241,26,23,28,312,34,26,84,073,44,27,08,172,*75
$GPGSV,3,3,11,29,18,051,30,31,47,058,33,32,16,134,31*42
$GPGLL,3731.02486,N,07624.98167,W,022815.00,A,A*7F
$GPGST,022815.00,37,,,,2.8,2.0,3.2*56
$GPRMC,022816.00,A,3731.02490,N,07624.98168,W,0.026,0.00,201018,10.90,W,A*0C
$GPVTG,0.00,T,10.90,M,0.026,N,0.049,K,A*12
$GPGGA,022816.00,3731.02490,N,07624.98168,W,1,09,0.93,14.1,M,-35.6,M,,*5B
$GPGSA,A,3,26,32,22,29,23,31,03,16,14,,,,1.78,0.93,1.52*0C
$GPGSV,3,1,11,03,37,268,33,09,04,313,,14,40,128,35,16,62,208,12*7A
$GPGSV,3,2,11,22,34,241,27,23,28,312,34,26,84,073,44,27,08,172,*74
$GPGSV,3,3,11,29,18,051,30,31,47,058,33,32,16,134,30*43
$GPGLL,3731.02490,N,07624.98168,W,022816.00,A,A*74
$GPGST,022816.00,38,,,,2.8,2.0,3.2*5A
$GPRMC,022817.00,A,3731.02492,N,07624.98169,W,0.032,0.00,201018,10.90,W,A*0B
$GPVTG,0.00,T,10.90,M,0.032,N,0.060,K,A*1C
$GPGGA,022817.00,3731.02492,N,07624.98169,W,1,08,0.95,14.0,M,-35.6,M,,*5F
$GPGSA,A,3,26,32,22,29,23,31,03,14,,,,,1.91,0.95,1.66*0D
$GPGSV,3,1,11,03,37,268,33,09,04,313,,14,40,128,35,16,62,208,08*71
$GPGSV,3,2,11,22,34,241,27,23,28,312,34,26,84,073,44,27,08,172,*74
$GPGSV,3,3,11,29,18,051,30,31,47,058,33,32,16,134,30*43
$GPGLL,3731.02492,N,07624.98169,W,022817.00,A,A*76
$GPGST,022817.00,20,,,,2.8,2.0,3.3*53
$GPRMC,022818.00,A,3731.02493,N,07624.98172,W,0.036,0.00,201018,10.90,W,A*0B
$GPVTG,0.00,T,10.90,M,0.036,N,0.067,K,A*1F
$GPGGA,022818.00,3731.02493,N,07624.98172,W,1,08,0.95,13.9,M,-35.6,M,,*55
$GPGSA,A,3,26,32,22,29,23,31,03,14,,,,,1.91,0.95,1.66*0D
$GPGSV,3,1,11,03,37,268,33,09,04,313,20,14,40,128,35,16,62,208,08*73
$GPGSV,3,2,11,22,34,241,27,23,28,312,34,26,84,073,44,27,08,172,*74
$GPGSV,3,3,11,29,18,051,31,31,47,058,33,32,16,134,30*42
$GPGLL,3731.02493,N,07624.98172,W,022818.00,A,A*72
$GPGST,022818.00,20,,,,2.8,2.0,3.3*5C
$GPRMC,022819.00,A,3731.02494,N,07624.98174,W,0.024,0.00,201018,10.90,W,A*08
$GPVTG,0.00,T,10.90,M,0.024,N,0.044,K,A*1D
$GPGGA,022819.00,3731.02494,N,07624.98174,W,1,08,0.95,14.0,M,-35.6,M,,*5B
$GPGSA,A,3,26,32,22,29,23,31,03,14,,,,,1.91,0.95,1.66*0D
$GPGSV,3,1,11,03,37,268,33,09,04,313,19,14,40,128,35,16,62,208,08*79
$GPGSV,3,2,11,22,34,241,27,23,28,312,34,26,84,073,44,27,08,172,*74
$GPGSV,3,3,11,29,18,051,31,31,47,058,33,32,16,134,30*42
$GPGLL,3731.02494,N,07624.98174,W,022819.00,A,A*72
$GPGST,022819.00,20,,,,2.8,2.0,3.3*5D
$GPRMC,022820.00,A,3731.02496,N,07624.98176,W,0.034,0.00,201018,10.90,W,A*03
$GPVTG,0.00,T,10.90,M,0.034,N,0.064,K,A*1E
$GPGGA,022820.00,3731.02496,N,07624.98176,W,1,09,0.93,14.0,M,-35.6,M,,*56
$GPGSA,A,3,26,32,22,29,23,31,03,16,14,,,,1.78,0.93,1.51*0F
$GPGSV,3,1,11,03,37,268,33,09,04,313,19,14,40,128,35,16,62,208,08*79
$GPGSV,3,2,11,22,34,241,27,23,28,312,34,26,84,073,44,27,08,172,*74
$GPGSV,3,3,11,29,18,051,31,31,47,058,33,32,16,134,30*42
$GPGLL,3731.02496,N,07624.98176,W,022820.00,A,A*78
$GPGST,022820.00,43,,,,2.8,2.0,3.3*52
!AIVDM,1,1,,A,B5NUjDP00>`S9WUGQ<b`;wbUWP06,0*50
$GPRMC,022821.00,A,3731.02498,N,07624.98178,W,0.027,0.00,201018,10.90,W,A*00
$GPVTG,0.00,T,10.90,M,0.027,N,0.050,K,A*1B
$GPGGA,022821.00,3731.02498,N,07624.98178,W,1,09,0.93,13.9,M,-35.6,M,,*59
$GPGSA,A,3,26,32,22,29,23,31,03,16,14,,,,1.78,0.93,1.51*0F
$GPGSV,3,1,11,03,37,268,33,09,04,313,20,14,40,128,35,16,62,208,08*73
$GPGSV,3,2,11,22,34,241,28,23,28,312,34,26,84,073,43,27,08,172,*7C
$GPGSV,3,3,11,29,18,051,31,31,47,058,33,32,16,134,30*42
$GPGLL,3731.02498,N,07624.98178,W,022821.00,A,A*79
$GPGST,022821.00,42,,,,2.8,2.0,3.3*52
$GPRMC,022822.00,A,3731.02500,N,07624.98181,W,0.050,0.00,201018,10.90,W,A*05
$GPVTG,0.00,T,10.90,M,0.050,N,0.092,K,A*15
$GPGGA,022822.00,3731.02500,N,07624.98181,W,1,09,0.93,13.9,M,-35.6,M,,*5C
$GPGSA,A,3,26,32,22,29,23,31,03,16,14,,,,1.78,0.93,1.51*0F
$GPGSV,3,1,11,03,37,268,32,09,04,313,20,14,40,128,35,16,62,208,08*72
$GPGSV,3,2,11,22,34,241,28,23,28,312,34,26,84,073,44,27,08,172,*7B
$GPGSV,3,3,11,29,18,051,31,31,47,058,33,32,16,134,29*4A
$GPGLL,3731.02500,N,07624.98181,W,022822.00,A,A*7C
$GPGST,022822.00,43,,,,2.9,2.0,3.3*51
$GPRMC,022823.00,A,3731.02502,N,07624.98183,W,0.012,0.00,201018,10.90,W,A*02
$GPVTG,0.00,T,10.90,M,0.012,N,0.023,K,A*19
$GPGGA,022823.00,3731.02502,N,07624.98183,W,1,09,0.93,13.9,M,-35.6,M,,*5D
$GPGSA,A,3,26,32,22,29,23,31,03,16,14,,,,1.78,0.93,1.51*0F
$GPGSV,3,1,11,03,37,267,32,09,04,313,20,14,40,128,35,16,62,208,08*7D
$GPGSV,3,2,11,22,34,241,28,23,28,312,34,26,84,073,43,27,08,172,*7C
$GPGSV,3,3,11,29,18,051,30,31,47,058,33,32,16,134,29*4B
$GPGLL,3731.02502,N,07624.98183,W,022823.00,A,A*7D
$GPGST,022823.00,42,,,,2.9,2.0,3.3*51
$GPRMC,022824.00,A,3731.02505,N,07624.98184,W,0.045,0.00,201018,10.90,W,A*07
$GPVTG,0.00,T,10.90,M,0.045,N,0.082,K,A*10
$GPGGA,022824.00,3731.02505,N,07624.98184,W,1,09,0.93,13.8,M,-35.6,M,,*5B
$GPGSA,A,3,26,32,22,29,23,31,03,16,14,,,,1.78,0.93,1.51*0F
$GPGSV,3,1,11,03,37,267,32,09,04,313,19,14,40,128,35,16,62,208,08*77
$GPGSV,3,2,11,22,34,241,28,23,28,312,34,26,84,073,44,27,08,172,*7B
$GPGSV,3,3,11,29,18,051,29,31,47,058,34,32,16,134,29*44
$GPGLL,3731.02505,N,07624.98184,W,022824.00,A,A*7A
$GPGST,022824.00,43,,,,2.9,2.0,3.3*57
$GPRMC,022825.00,A,3731.02508,N,07624.98186,W,0.038,0.00,201018,10.90,W,A*03
$GPVTG,0.00,T,10.90,M,0.038,N,0.071,K,A*16
$GPGGA,022825.00,3731.02508,N,07624.98186,W,1,09,0.93,13.7,M,-35.6,M,,*5A
$GPGSA,A,3,26,32,22,29,23,31,03,16,14,,,,1.78,0.93,1.51*0F
$GPGSV,3,1,11,03,37,267,32,09,04,313,19,14,40,128,35,16,62,208,08*77
$GPGSV,3,2,11,22,34,241,28,23,28,312,34,26,84,073,43,27,08,172,*7C
$GPGSV,3,3,11,29,18,051,29,31,47,058,34,32,16,134,29*44
$GPGLL,3731.02508,N,07624.98186,W,022825.00,A,A*74
$GPGST,022825.00,42,,,,2.9,2.1,3.4*51
$GPRMC,022826.00,A,3731.02513,N,07624.98182,W,0.027,0.00,201018,10.90,W,A*00
$GPVTG,0.00,T,10.90,M,0.027,N,0.049,K,A*13
$GPGGA,022826.00,3731.02513,N,07624.98182,W,1,09,0.93,13.7,M,-35.6,M,,*57
$GPGSA,A,3,26,32,22,29,23,31,03,16,14,,,,1.78,0.93,1.51*0F
$GPGSV,3,1,11,03,37,267,32,09,04,313,19,14,40,128,36,16,62,208,17*7A
$GPGSV,3,2,11,22,34,241,28,23,28,312,34,26,84,073,44,27,08,172,*7B
$GPGSV,3,3,11,29,18,051,30,31,47,058,36,32,16,134,30*46
$GPGLL,3731.02513,N,07624.98182,W,022826.00,A,A*79
$GPGST,022826.00,33,,,,2.9,2.1,3.4*54
$GPRMC,022827.00,A,3731.02515,N,07624.98183,W,0.034,0.00,201018,10.90,W,A*04
$GPVTG,0.00,T,10.90,M,0.034,N,0.062,K,A*18
$GPGGA,022827.00,3731.02515,N,07624.98183,W,1,09,0.93,13.7,M,-35.6,M,,*51
$GPGSA,A,3,26,32,22,29,23,31,03,16,14,,,,1.77,0.93,1.51*00
$GPGSV,3,1,11,03,37,267,32,09,04,313,18,14,40,128,34,16,62,208,21*7C
$GPGSV,3,2,11,22,34,241,28,23,28,312,34,26,84,073,44,27,08,172,*7B
$GPGSV,3,3,11,29,18,051,30,31,47,058,33,32,16,134,29*4B
$GPGLL,3731.02515,N,07624.98183,W,022827.00,A,A*7F
$GPGST,022827.00,31,,,,2.9,2.1,3.4*57
$GPRMC,022828.00,A,3731.02517,N,07624.98184,W,0.013,0.00,201018,10.90,W,A*0B
$GPVTG,0.00,T,10.90,M,0.013,N,0.025,K,A*1E
$GPGGA,022828.00,3731.02517,N,07624.98184,W,1,09,0.93,13.6,M,-35.6,M,,*5A
$GPGSA,A,3,26,32,22,29,23,31,03,16,14,,,,1.77,0.93,1.51*00
$GPGSV,3,1,11,03,37,267,32,09,04,313,19,14,40,128,35,16,62,208,23*7E
$GPGSV,3,2,11,22,34,241,28,23,28,312,34,26,84,073,44,27,08,172,*7B
$GPGSV,3,3,11,29,18,051,29,31,47,058,34,32,16,134,29*44
$GPGLL,3731.02517,N,07624.98184,W,022828.00,A,A*75
$GPGST,022828.00,25,,,,2.9,2.1,3.4*5D
$GPRMC,022829.00,A,3731.02519,N,07624.98183,W,0.010,0.00,201018,10.90,W,A*00
$GPVTG,0.00,T,10.90,M,0.010,N,0.019,K,A*12
$GPGGA,022829.00,3731.02519,N,07624.98183,W,1,09,0.93,13.5,M,-35.6,M,,*51
$GPGSA,A,3,26,32,22,29,23,31,03,16,14,,,,1.77,0.93,1.51*00
$GPGSV,3,1,11,03,37,267,32,09,04,314,19,14,40,128,35,16,62,208,23*79
$GPGSV,3,2,11,22,34,241,28,23,28,312,34,26,84,073,44,27,08,172,*7B
$GPGSV,3,3,11,29,18,051,29,31,47,058,34,32,16,134,29*44
$GPGLL,3731.02519,N,07624.98183,W,022829.00,A,A*7D
$GPGST,022829.00,26,,,,2.9,2.1,3.4*5F
$GPRMC,022830.00,A,3731.02523,N,07624.98181,W,0.092,0.00,201018,10.90,W,A*09
$GPVTG,0.00,T,10.90,M,0.092,N,0.171,K,A*17
$GPGGA,022830.00,3731.02523,N,07624.98181,W,1,09,0.93,13.4,M,-35.6,M,,*53
$GPGSA,A,3,26,32,22,29,23,31,03,16,14,,,,1.77,0.93,1.51*00
$GPGSV,3,1,11,03,37,267,32,09,04,314,18,14,40,128,35,16,62,208,23*78
$GPGSV,3,2,11,22,34,241,27,23,28,312,34,26,84,073,44,27,08,172,*74
$GPGSV,3,3,11,29,18,051,29,31,47,058,34,32,16,134,29*44
$GPGLL,3731.02523,N,07624.98181,W,022830.00,A,A*7E
$GPGST,022830.00,26,,,,2.9,2.1,3.4*57
$GPRMC,022831.00,A,3731.02527,N,07624.98181,W,0.051,0.00,201018,10.90,W,A*03
$GPVTG,0.00,T,10.90,M,0.051,N,0.095,K,A*13
$GPGGA,022831.00,3731.02527,N,07624.98181,W,1,09,0.93,13.3,M,-35.6,M,,*51
$GPGSA,A,3,26,32,22,29,23,31,03,16,14,,,,1.77,0.93,1.51*00
$GPGSV,3,1,11,03,37,267,31,09,04,314,18,14,40,128,35,16,62,208,23*7B
$GPGSV,3,2,11,22,34,241,28,23,28,312,34,26,84,073,44,27,08,172,*7B
$GPGSV,3,3,11,29,18,051,29,31,47,058,34,32,16,134,29*44
$GPGLL,3731.02527,N,07624.98181,W,022831.00,A,A*7B
$GPGST,022831.00,25,,,,2.9,2.1,3.5*54
$GPRMC,022832.00,A,3731.02529,N,07624.98180,W,0.062,0.00,201018,10.90,W,A*0F
$GPVTG,0.00,T,10.90,M,0.062,N,0.115,K,A*1A
$GPGGA,022832.00,3731.02529,N,07624.98180,W,1,09,0.93,13.2,M,-35.6,M,,*5C
$GPGSA,A,3,26,32,22,29,23,31,03,16,14,,,,1.77,0.93,1.51*00
$GPGSV,3,1,11,03,37,267,31,09,04,314,18,14,40,128,35,16,62,208,22*7A
$GPGSV,3,2,11,22,34,241,27,23,28,312,33,26,84,073,44,27,08,172,*73
$GPGSV,3,3,11,29,18,051,29,31,47,058,34,32,16,134,30*4C
$GPGLL,3731.02529,N,07624.98180,W,022832.00,A,A*77
$GPGST,022832.00,26,,,,3.0,2.1,3.5*5C
$GPRMC,022833.00,A,3731.02531,N,07624.98181,W,0.076,0.00,201018,10.90,W,A*03
$GPVTG,0.00,T,10.90,M,0.076,N,0.141,K,A*1E
$GPGGA,022833.00,3731.02531,N,07624.98181,W,1,09,0.93,13.1,M,-35.6,M,,*56
$GPGSA,A,3,26,32,22,29,23,31,03,16,14,,,,1.77,0.93,1.51*00
$GPGSV,3,1,11,03,37,267,30,09,04,314,18,14,40,128,36,16,62,208,22*78
$GPGSV,3,2,11,22,34,241,28,23,28,312,33,26,84,073,44,27,08,172,*7C
$GPGSV,3,3,11,29,18,051,29,31,47,058,34,32,16,134,29*44
$GPGLL,3731.02531,N,07624.98181,W,022833.00,A,A*7E
$GPGST,022833.00,26,,,,3.0,2.1,3.5*5D
$GPRMC,022834.00,A,3731.02534,N,07624.98180,W,0.009,0.00,201018,10.90,W,A*08
$GPVTG,0.00,T,10.90,M,0.009,N,0.017,K,A*14
$GPGGA,022834.00,3731.02534,N,07624.98180,W,1,09,0.93,13.0,M,-35.6,M,,*54
$GPGSA,A,3,26,32,22,29,23,31,03,16,14,,,,1.77,0.93,1.51*00
$GPGSV,3,1,11,03,37,267,31,09,04,314,19,14,39,129,36,16,62,208,22*77
$GPGSV,3,2,11,22,34,241,28,23,28,312,33,26,84,073,44,27,08,172,*7C
$GPGSV,3,3,11,29,18,051,29,31,47,058,34,32,16,134,30*4C
$GPGLL,3731.02534,N,07624.98180,W,022834.00,A,A*7D
$GPGST,022834.00,26,,,,3.0,2.1,3.5*5A
$GPRMC,022835.00,A,3731.02538,N,07624.98181,W,0.068,0.00,201018,10.90,W,A*03
$GPVTG,0.00,T,10.90,M,0.068,N,0.126,K,A*10
$GPGGA,022835.00,3731.02538,N,07624.98181,W,1,09,0.93,12.9,M,-35.6,M,,*50
$GPGSA,A,3,26,32,22,29,23,31,03,16,14,,,,1.77,0.93,1.51*00
$GPGSV,3,1,11,03,37,267,30,09,04,314,19,14,39,129,36,16,62,208,21*75
$GPGSV,3,2,11,22,34,241,28,23,28,312,34,26,84,073,44,27,08,172,*7B
$GPGSV,3,3,11,29,18,051,29,31,47,058,34,32,16,134,30*4C
$GPGLL,3731.02538,N,07624.98181,W,022835.00,A,A*71
$GPGST,022835.00,31,,,,3.0,2.2,3.5*5E
$GPRMC,022836.00,A,3731.02542,N,07624.98181,W,0.008,0.00,201018,10.90,W,A*0B
$GPVTG,0.00,T,10.90,M,0.008,N,0.015,K,A*17
$GPGGA,022836.00,3731.02542,N,07624.98181,W,1,09,0.93,12.8,M,-35.6,M,,*5F
$GPGSA,A,3,26,32,22,29,23,31,03,16,14,,,,1.77,0.93,1.51*00
$GPGSV,3,1,11,03,37,267,30,09,04,314,18,14,39,129,36,16,62,209,21*75
$GPGSV,3,2,11,22,34,241,29,23,28,312,34,26,84,073,44,27,08,172,*7A
$GPGSV,3,3,11,29,18,051,29,31,47,058,34,32,16,134,30*4C
$GPGLL,3731.02542,N,07624.98181,W,022836.00,A,A*7F
$GPGST,022836.00,31,,,,3.0,2.2,3.5*5D
$GPRMC,022837.00,A,3731.02548,N,07624.98180,W,0.041,0.00,201018,10.90,W,A*0C
$GPVTG,0.00,T,10.90,M,0.041,N,0.076,K,A*1F
$GPGGA,022837.00,3731.02548,N,07624.98180,W,1,09,0.93,12.7,M,-35.6,M,,*5A
$GPGSA,A,3,26,32,22,29,23,31,03,16,14,,,,1.77,0.93,1.51*00
$GPGSV,3,1,11,03,37,267,30,09,04,314,18,14,39,129,36,16,62,209,21*75
$GPGSV,3,2,11,22,34,241,29,23,28,312,34,26,84,073,44,27,08,172,*7A
$GPGSV,3,3,11,29,18,051,29,31,47,058,34,32,16,134,29*44
$GPGLL,3731.02548,N,07624.98180,W,022837.00,A,A*75
$GPGST,022837.00,31,,,,3.0,2.2,3.5*5C
$GPRMC,022838.00,A,3731.02553,N,07624.98180,W,0.027,0.00,201018,10.90,W,A*09
$GPVTG,0.00,T,10.90,M,0.027,N,0.050,K,A*1B
$GPGGA,022838.00,3731.02553,N,07624.98180,W,1,09,0.93,12.6,M,-35.6,M,,*5E
$GPGSA,A,3,26,32,22,29,23,31,03,16,14,,,,1.77,0.93,1.51*00
$GPGSV,3,1,11,03,37,267,30,09,04,314,17,14,39,129,36,16,62,209,22*79
$GPGSV,3,2,11,22,34,241,29,23,28,312,34,26,84,073,44,27,08,172,*7A
$GPGSV,3,3,11,29,18,051,28,31,47,058,35,32,16,134,29*44
$GPGLL,3731.02553,N,07624.98180,W,022838.00,A,A*70
$GPGST,022838.00,26,,,,3.0,2.2,3.5*55
$GPRMC,022839.00,A,3731.02555,N,07624.98181,W,0.022,0.00,201018,10.90,W,A*0A
$GPVTG,0.00,T,10.90,M,0.022,N,0.040,K,A*1F
$GPGGA,022839.00,3731.02555,N,07624.98181,W,1,09,0.93,12.5,M,-35.6,M,,*5B
$GPGSA,A,3,26,32,22,29,23,31,03,16,14,,,,1.77,0.93,1.51*00
$GPGSV,3,1,11,03,37,267,31,09,04,314,17,14,39,129,35,16,62,209,23*7A
$GPGSV,3,2,11,22,34,241,28,23,28,312,34,26,84,073,44,27,08,172,*7B
$GPGSV,3,3,11,29,18,051,29,31,47,058,34,32,16,134,30*4C
$GPGLL,3731.02555,N,07624.98181,W,022839.00,A,A*76
$GPGST,022839.00,25,,,,3.0,2.2,3.5*57
$GPRMC,022840.00,A,3731.02557,N,07624.98181,W,0.023,0.00,201018,10.90,W,A*07
$GPVTG,0.00,T,10.90,M,0.023,N,0.043,K,A*1D
$GPGGA,022840.00,3731.02557,N,07624.98181,W,1,09,0.93,12.5,M,-35.6,M,,*57
$GPGSA,A,3,26,32,22,29,23,31,03,16,14,,,,1.77,0.93,1.51*00
$GPGSV,3,1,11,03,37,267,31,09,04,314,16,14,39,129,36,16,62,209,26*7D
$GPGSV,3,2,11,22,34,241,28,23,28,312,33,26,84,073,44,27,08,172,*7C
$GPGSV,3,3,11,29,18,051,29,31,47,058,34,32,16,134,29*44
$GPGLL,3731.02557,N,07624.98181,W,022840.00,A,A*7A
$GPGST,022840.00,23,,,,3.0,2.2,3.6*5C
!AIVDM,1,1,,A,H5NUjDQ<hv0LTr2222222222220,2*75
$GPRMC,022841.00,A,3731.02561,N,07624.98181,W,0.016,0.00,201018,10.90,W,A*05
$GPVTG,0.00,T,10.90,M,0.016,N,0.030,K,A*1F
$GPGGA,022841.00,3731.02561,N,07624.98181,W,1,09,0.93,12.5,M,-35.6,M,,*53
$GPGSA,A,3,26,32,22,29,23,31,03,16,14,,,,1.77,0.93,1.51*00
$GPGSV,3,1,11,03,37,267,32,09,04,314,17,14,39,129,37,16,62,209,25*7D
$GPGSV,3,2,11,22,34,241,29,23,28,312,33,26,84,073,45,27,08,172,*7C
$GPGSV,3,3,11,29,18,051,29,31,47,058,34,32,16,134,28*45
$GPGLL,3731.02561,N,07624.98181,W,022841.00,A,A*7E
$GPGST,022841.00,24,,,,3.0,2.2,3.6*5A
$GPRMC,022842.00,A,3731.02563,N,07624.98179,W,0.027,0.00,201018,10.90,W,A*01
$GPVTG,0.00,T,10.90,M,0.027,N,0.050,K,A*1B
$GPGGA,022842.00,3731.02563,N,07624.98179,W,1,09,0.93,12.5,M,-35.6,M,,*55
$GPGSA,A,3,26,32,22,29,23,31,03,16,14,,,,1.77,0.93,1.51*00
$GPGSV,3,1,11,03,37,267,31,09,04,314,16,14,39,129,34,16,62,209,25*7C
$GPGSV,3,2,11,22,33,240,29,23,28,312,28,26,84,073,44,27,08,172,*71
$GPGSV,3,3,11,29,18,051,29,31,47,058,35,32,16,134,28*44
$GPGLL,3731.02563,N,07624.98179,W,022842.00,A,A*78
$GPGST,022842.00,25,,,,3.0,2.2,3.6*58
$GPRMC,022843.00,A,3731.02568,N,07624.98179,W,0.005,0.00,201018,10.90,W,A*0B
$GPVTG,0.00,T,10.90,M,0.005,N,0.010,K,A*1F
$GPGGA,022843.00,3731.02568,N,07624.98179,W,1,09,0.93,12.4,M,-35.6,M,,*5E
$GPGSA,A,3,26,32,22,29,23,31,03,16,14,,,,1.77,0.93,1.51*00
$GPGSV,3,1,11,03,37,267,31,09,04,314,16,14,39,129,36,16,62,209,26*7D
$GPGSV,3,2,11,22,33,240,28,23,29,312,33,26,84,073,44,27,08,172,*7B
$GPGSV,3,3,11,29,18,051,29,31,47,058,35,32,16,134,28*44
$GPGLL,3731.02568,N,07624.98179,W,022843.00,A,A*72
$GPGST,022843.00,23,,,,3.0,2.2,3.6*5F
$GPRMC,022844.00,A,3731.02572,N,07624.98180,W,0.019,0.00,201018,10.90,W,A*0C
$GPVTG,0.00,T,10.90,M,0.019,N,0.034,K,A*14
$GPGGA,022844.00,3731.02572,N,07624.98180,W,1,09,0.93,12.4,M,-35.6,M,,*54
$GPGSA,A,3,26,32,22,29,23,31,03,16,14,,,,1.77,0.93,1.51*00
$GPGSV,3,1,11,03,37,267,31,09,04,314,16,14,39,129,36,16,62,209,26*7D
$GPGSV,3,2,11,22,33,240,27,23,29,312,33,26,84,073,45,27,08,172,*75
$GPGSV,3,3,11,29,18,051,29,31,47,058,34,32,16,134,28*45
$GPGLL,3731.02572,N,07624.98180,W,022844.00,A,A*78
$GPGST,022844.00,25,,,,3.0,2.2,3.6*5E
!AIVDM,1,1,,A,H5NUjDTU653hhhiG48lojl2P5430,0*70
$GPRMC,022845.00,A,3731.02577,N,07624.98182,W,0.009,0.00,201018,10.90,W,A*0B
$GPVTG,0.00,T,10.90,M,0.009,N,0.017,K,A*14
$GPGGA,022845.00,3731.02577,N,07624.98182,W,1,09,0.93,12.3,M,-35.6,M,,*55
$GPGSA,A,3,26,32,22,29,23,31,03,16,14,,,,1.77,0.93,1.51*00
$GPGSV,3,1,11,03,37,267,30,09,04,314,14,14,39,129,36,16,62,209,27*7F
$GPGSV,3,2,11,22,33,240,26,23,29,312,34,26,84,073,45,27,08,172,*73
$GPGSV,3,3,11,29,18,051,29,31,47,058,34,32,16,134,27*4A
$GPGLL,3731.02577,N,07624.98182,W,022845.00,A,A*7E
$GPGST,022845.00,25,,,,3.0,2.2,3.6*5F
$GPRMC,022846.00,A,3731.02583,N,07624.98181,W,0.029,0.00,201018,10.90,W,A*02
$GPVTG,0.00,T,10.90,M,0.029,N,0.053,K,A*16
$GPGGA,022846.00,3731.02583,N,07624.98181,W,1,09,0.93,12.2,M,-35.6,M,,*5F
$GPGSA,A,3,26,32,22,29,23,31,03,16,14,,,,1.77,0.93,1.51*00
$GPGSV,3,1,11,03,37,267,31,09,04,314,14,14,39,129,36,16,62,209,28*71
$GPGSV,3,2,11,22,33,240,26,23,29,312,34,26,84,069,45,27,08,172,*78
$GPGSV,3,3,11,29,18,051,28,31,47,058,34,32,16,134,27*4B
$GPGLL,3731.02583,N,07624.98181,W,022846.00,A,A*75
$GPGST,022846.00,25,,,,3.0,2.2,3.6*5C
$GPRMC,022847.00,A,3731.02587,N,07624.98182,W,0.038,0.00,201018,10.90,W,A*04
$GPVTG,0.00,T,10.90,M,0.038,N,0.070,K,A*17
$GPGGA,022847.00,3731.02587,N,07624.98182,W,1,09,0.93,12.0,M,-35.6,M,,*5B
$GPGSA,A,3,26,32,22,29,23,31,03,16,14,,,,1.77,0.93,1.51*00
$GPGSV,3,1,11,03,37,267,31,09,04,314,14,14,39,129,36,16,62,209,28*71
$GPGSV,3,2,11,22,33,240,27,23,29,312,35,26,84,069,45,27,08,172,*78
$GPGSV,3,3,11,29,18,051,28,31,47,058,33,32,16,134,27*4C
$GPGLL,3731.02587,N,07624.98182,W,022847.00,A,A*73
$GPGST,022847.00,24,,,,3.0,2.3,3.6*5D
$GPRMC,022848.00,A,3731.02591,N,07624.98183,W,0.016,0.00,201018,10.90,W,A*01
$GPVTG,0.00,T,10.90,M,0.016,N,0.029,K,A*17
$GPGGA,022848.00,3731.02591,N,07624.98183,W,1,09,0.93,11.8,M,-35.6,M,,*59
$GPGSA,A,3,26,32,22,29,23,31,03,16,14,,,,1.77,0.93,1.51*00
$GPGSV,3,1,11,03,37,267,30,09,04,314,14,14,39,129,36,16,62,209,28*70
$GPGSV,3,2,11,22,33,240,27,23,29,312,35,26,84,069,45,27,08,172,*78
$GPGSV,3,3,11,29,18,051,28,31,47,058,32,32,16,134,27*4D
$GPGLL,3731.02591,N,07624.98183,W,022848.00,A,A*7A
$GPGST,022848.00,25,,,,3.1,2.3,3.6*52
$GPRMC,022849.00,A,3731.02595,N,07624.98184,W,0.042,0.00,201018,10.90,W,A*02
$GPVTG,0.00,T,10.90,M,0.042,N,0.078,K,A*12
$GPGGA,022849.00,3731.02595,N,07624.98184,W,1,09,0.93,11.7,M,-35.6,M,,*54
$GPGSA,A,3,26,32,22,29,23,31,03,16,14,,,,1.77,0.93,1.51*00
$GPGSV,3,1,11,03,37,267,30,09,04,314,14,14,39,129,36,16,62,209,27*7F
$GPGSV,3,2,11,22,33,240,26,23,29,312,35,26,84,069,45,27,08,172,*79
$GPGSV,3,3,11,29,18,050,28,31,47,058,32,32,16,134,27*4C
$GPGLL,3731.02595,N,07624.98184,W,022849.00,A,A*78
$GPGST,022849.00,26,,,,3.1,2.3,3.7*51
$GPRMC,022850.00,A,3731.02598,N,07624.98185,W,0.044,0.00,201018,10.90,W,A*00
$GPVTG,0.00,T,10.90,M,0.044,N,0.081,K,A*12
$GPGGA,022850.00,3731.02598,N,07624.98185,W,1,09,0.93,11.5,M,-35.6,M,,*52
$GPGSA,A,3,26,32,22,29,23,31,03,16,14,,,,1.77,0.93,1.51*00
$GPGSV,3,1,11,03,37,267,29,09,04,314,14,14,39,129,36,16,62,209,25*75
$GPGSV,3,2,11,22,33,240,26,23,29,312,35,26,84,069,44,27,08,172,*78
$GPGSV,3,3,11,29,18,050,27,31,47,058,32,32,16,134,27*43
$GPGLL,3731.02598,N,07624.98185,W,022850.00,A,A*7C
$GPGST,022850.00,27,,,,3.1,2.3,3.7*58
$GPRMC,022851.00,A,3731.02603,N,07624.98187,W,0.063,0.00,201018,10.90,W,A*07
$GPVTG,0.00,T,10.90,M,0.063,N,0.117,K,A*19
$GPGGA,022851.00,3731.02603,N,07624.98187,W,1,09,0.93,11.4,M,-35.6,M,,*51
$GPGSA,A,3,26,32,22,29,23,31,03,16,14,,,,1.77,0.93,1.51*00
$GPGSV,3,1,11,03,37,267,30,09,04,314,13,14,39,129,36,16,62,209,25*7A
$GPGSV,3,2,11,22,33,240,26,23,29,312,36,26,84,069,45,27,08,172,*7A
$GPGSV,3,3,11,29,18,050,27,31,47,059,32,32,16,134,27*42
$GPGLL,3731.02603,N,07624.98187,W,022851.00,A,A*7E
$GPGST,022851.00,27,,,,3.1,2.3,3.7*59
$GPRMC,022852.00,A,3731.02609,N,07624.98188,W,0.014,0.00,201018,10.90,W,A*01
$GPVTG,0.00,T,10.90,M,0.014,N,0.026,K,A*1A
$GPGGA,022852.00,3731.02609,N,07624.98188,W,1,09,0.93,11.2,M,-35.6,M,,*51
$GPGSA,A,3,26,32,22,29,23,31,03,16,14,,,,1.77,0.93,1.51*00
$GPGSV,3,1,11,03,37,267,30,09,04,314,13,14,39,129,36,16,62,209,26*79
$GPGSV,3,2,11,22,33,240,26,23,29,312,36,26,84,069,45,27,08,172,*7A
$GPGSV,3,3,11,29,18,050,27,31,47,059,32,32,16,134,27*42
$GPGLL,3731.02609,N,07624.98188,W,022852.00,A,A*78
$GPGST,022852.00,27,,,,3.1,2.3,3.7*5A
$GPRMC,022853.00,A,3731.02613,N,07624.98188,W,0.057,0.00,201018,10.90,W,A*0C
$GPVTG,0.00,T,10.90,M,0.057,N,0.106,K,A*1E
$GPGGA,022853.00,3731.02613,N,07624.98188,W,1,09,0.93,11.1,M,-35.6,M,,*58
$GPGSA,A,3,26,32,22,29,23,31,03,16,14,,,,1.77,0.93,1.51*00
$GPGSV,3,1,11,03,37,267,30,09,04,314,13,14,39,129,36,16,62,209,27*78
$GPGSV,3,2,11,22,33,240,27,23,29,312,36,26,84,069,45,27,08,172,*7B
$GPGSV,3,3,11,29,18,050,27,31,47,059,33,32,16,134,27*43
$GPGLL,3731.02613,N,07624.98188,W,022853.00,A,A*72
$GPGST,022853.00,25,,,,3.1,2.3,3.7*59
$GPRMC,022854.00,A,3731.02614,N,07624.98187,W,0.056,0.00,201018,10.90,W,A*02
$GPVTG,0.00,T,10.90,M,0.056,N,0.105,K,A*1C
$GPGGA,022854.00,3731.02614,N,07624.98187,W,1,09,0.93,11.0,M,-35.6,M,,*56
$GPGSA,A,3,26,32,22,29,23,31,03,16,14,,,,1.77,0.93,1.51*00
$GPGSV,3,1,11,03,37,267,30,09,04,314,11,14,39,129,36,16,62,209,27*7A
$GPGSV,3,2,11,22,33,240,27,23,29,312,35,26,84,069,45,27,08,172,*78
$GPGSV,3,3,11,29,18,050,26,31,47,059,33,32,16,134,27*42
$GPGLL,3731.02614,N,07624.98187,W,022854.00,A,A*7D
$GPGST,022854.00,26,,,,3.1,2.4,3.7*5A
$GPRMC,022855.00,A,3731.02617,N,07624.98185,W,0.011,0.00,201018,10.90,W,A*01
$GPVTG,0.00,T,10.90,M,0.011,N,0.021,K,A*18
$GPGGA,022855.00,3731.02617,N,07624.98185,W,1,09,0.93,10.9,M,-35.6,M,,*5E
$GPGSA,A,3,26,32,22,29,23,31,03,16,14,,,,1.77,0.93,1.51*00
$GPGSV,3,1,11,03,37,267,30,09,04,314,10,14,39,129,36,16,62,209,26*7A
$GPGSV,3,2,11,22,33,240,26,23,29,312,35,26,84,069,45,27,08,172,*79
$GPGSV,3,3,11,29,18,050,26,31,47,059,33,32,16,134,27*42
$GPGLL,3731.02617,N,07624.98185,W,022855.00,A,A*7D
$GPGST,022855.00,27,,,,3.1,2.4,3.7*5A
$GPRMC,022856.00,A,3731.02620,N,07624.98185,W,0.030,0.00,201018,10.90,W,A*05
$GPVTG,0.00,T,10.90,M,0.030,N,0.055,K,A*18
$GPGGA,022856.00,3731.02620,N,07624.98185,W,1,09,0.93,10.7,M,-35.6,M,,*57
$GPGSA,A,3,26,32,22,29,23,31,03,16,14,,,,1.77,0.93,1.51*00
$GPGSV,3,1,11,03,37,267,29,09,04,314,13,14,39,129,35,16,62,209,26*72
$GPGSV,3,2,11,22,33,240,26,23,29,312,35,26,84,069,45,27,08,172,*79
$GPGSV,3,3,11,29,18,050,27,31,47,059,32,32,16,134,27*42
$GPGLL,3731.02620,N,07624.98185,W,022856.00,A,A*7A
$GPGST,022856.00,27,,,,3.1,2.4,3.7*59
$GPRMC,022857.00,A,3731.02621,N,07624.98186,W,0.061,0.00,201018,10.90,W,A*02
$GPVTG,0.00,T,10.90,M,0.061,N,0.113,K,A*1F
$GPGGA,022857.00,3731.02621,N,07624.98186,W,1,09,0.93,10.6,M,-35.6,M,,*55
$GPGSA,A,3,26,32,22,29,23,31,03,16,14,,,,1.77,0.93,1.51*00
$GPGSV,3,1,11,03,37,267,29,09,04,314,14,14,39,129,35,16,62,209,26*75
$GPGSV,3,2,11,22,33,240,26,23,29,312,35,26,84,069,45,27,08,172,*79
$GPGSV,3,3,11,29,18,050,27,31,47,059,32,32,16,134,26*43
$GPGLL,3731.02621,N,07624.98186,W,022857.00,A,A*79
$GPGST,022857.00,28,,,,3.2,2.4,3.7*54
$GPRMC,022858.00,A,3731.02624,N,07624.98185,W,0.008,0.00,201018,10.90,W,A*04
$GPVTG,0.00,T,10.90,M,0.008,N,0.015,K,A*17
$GPGGA,022858.00,3731.02624,N,07624.98185,W,1,09,0.93,10.5,M,-35.6,M,,*5F
$GPGSA,A,3,26,32,22,29,23,31,03,16,14,,,,1.77,0.93,1.51*00
$GPGSV,3,1,11,03,37,267,28,09,04,314,15,14,39,129,35,16,62,209,26*75
$GPGSV,3,2,11,22,33,240,26,23,29,312,35,26,84,069,45,27,08,172,*79
$GPGSV,3,3,11,29,18,050,28,31,47,059,32,32,16,134,27*4D
$GPGLL,3731.02624,N,07624.98185,W,022858.00,A,A*70
$GPGST,022858.00,27,,,,3.2,2.4,3.7*54
$GPRMC,022859.00,A,3731.02626,N,07624.98185,W,0.059,0.00,201018,10.90,W,A*03
$GPVTG,0.00,T,10.90,M,0.059,N,0.109,K,A*1F
$GPGGA,022859.00,3731.02626,N,07624.98185,W,1,09,0.93,10.4,M,-35.6,M,,*5D
$GPGSA,A,3,26,32,22,29,23,31,03,16,14,,,,1.77,0.93,1.51*00
$GPGSV,3,1,11,03,37,267,28,09,04,314,15,14,39,129,35,16,62,209,26*75
$GPGSV,3,2,11,22,33,240,26,23,29,312,35,26,84,069,45,27,08,172,*79
$GPGSV,3,3,11,29,18,050,27,31,47,059,32,32,16,134,27*42
$GPGLL,3731.02626,N,07624.98185,W,022859.00,A,A*73
$GPGST,022859.00,28,,,,3.2,2.4,3.7*5A
$GPRMC,022900.00,A,3731.02631,N,07624.98183,W,0.060,0.00,201018,10.90,W,A*04
$GPVTG,0.00,T,10.90,M,0.060,N,0.111,K,A*1C
$GPGGA,022900.00,3731.02631,N,07624.98183,W,1,09,0.93,10.2,M,-35.6,M,,*56
$GPGSA,A,3,26,32,22,29,23,31,03,16,14,,,,1.77,0.93,1.51*00
$GPGSV,3,1,11,03,37,267,27,09,04,314,15,14,39,129,35,16,62,209,26*7A
$GPGSV,3,2,11,22,33,240,25,23,29,312,35,26,84,069,45,27,08,172,*7A
$GPGSV,3,3,11,29,18,050,27,31,47,059,33,32,16,134,27*43
$GPGLL,3731.02631,N,07624.98183,W,022900.00,A,A*7E
$GPGST,022900.00,28,,,,3.2,2.5,3.7*56
$GPRMC,022901.00,A,3731.02633,N,07624.98184,W,0.017,0.00,201018,10.90,W,A*00
$GPVTG,0.00,T,10.90,M,0.017,N,0.031,K,A*1F
$GPGGA,022901.00,3731.02633,N,07624.98184,W,1,09,0.93,10.1,M,-35.6,M,,*51
$GPGSA,A,3,26,32,22,29,23,31,03,16,14,,,,1.77,0.93,1.51*00
$GPGSV,3,1,11,03,37,267,27,09,04,314,13,14,39,129,35,16,62,209,27*7D
$GPGSV,3,2,11,22,33,240,26,23,29,312,35,26,84,069,46,27,08,172,*7A
$GPGSV,3,3,11,29,18,050,27,31,47,059,33,32,16,134,27*43
$GPGLL,3731.02633,N,07624.98184,W,022901.00,A,A*7A
$GPGST,022901.00,28,,,,3.2,2.5,3.7*57
$GPRMC,022902.00,A,3731.02635,N,07624.98185,W,0.029,0.00,201018,10.90,W,A*09
$GPVTG,0.00,T,10.90,M,0.029,N,0.053,K,A*16
$GPGGA,022902.00,3731.02635,N,07624.98185,W,1,09,0.93,9.9,M,-35.6,M,,*65
$GPGSA,A,3,26,32,22,29,23,31,03,16,14,,,,1.77,0.93,1.51*00
$GPGSV,3,1,11,03,37,267,26,09,04,314,15,14,39,129,35,16,62,209,26*7B
$GPGSV,3,2,11,22,33,240,25,23,29,312,35,26,84,069,45,27,08,172,*7A
$GPGSV,3,3,11,29,18,050,28,31,47,059,33,32,16,134,27*4C
$GPGLL,3731.02635,N,07624.98185,W,022902.00,A,A*7E
$GPGST,022902.00,28,,,,3.2,2.5,3.7*54
$GPRMC,022903.00,A,3731.02637,N,07624.98185,W,0.028,0.00,201018,10.90,W,A*0B
$GPVTG,0.00,T,10.90,M,0.028,N,0.052,K,A*16
$GPGGA,022903.00,3731.02637,N,07624.98185,W,1,09,0.93,9.7,M,-35.6,M,,*68
$GPGSA,A,3,26,32,22,29,23,31,03,16,14,,,,1.77,0.93,1.51*00
$GPGSV,3,1,11,03,37,267,25,09,04,314,15,14,39,129,35,16,62,209,26*78
$GPGSV,3,2,11,22,33,240,25,23,29,312,35,26,84,069,45,27,08,172,*7A
$GPGSV,3,3,11,29,18,050,27,31,47,059,33,32,16,134,27*43
$GPGLL,3731.02637,N,07624.98185,W,022903.00,A,A*7D
$GPGST,022903.00,29,,,,3.3,2.5,3.7*55
$GPRMC,022904.00,A,3731.02640,N,07624.98185,W,0.019,0.00,201018,10.90,W,A*0E
$GPVTG,0.00,T,10.90,M,0.019,N,0.036,K,A*16
$GPGGA,022904.00,3731.02640,N,07624.98185,W,1,09,0.93,9.6,M,-35.6,M,,*6E
$GPGSA,A,3,26,32,22,29,23,31,03,16,14,,,,1.77,0.93,1.51*00
$GPGSV,3,1,11,03,37,267,24,09,04,314,15,14,39,129,35,16,62,209,26*79
$GPGSV,3,2,11,22,33,240,25,23,29,312,35,26,84,069,45,27,08,172,*7A
$GPGSV,3,3,11,29,18,050,27,31,47,059,32,32,16,134,28*4D
$GPGLL,3731.02640,N,07624.98185,W,022904.00,A,A*7A
$GPGST,022904.00,29,,,,3.3,2.5,3.8*5D
$GPRMC,022905.00,A,3731.02641,N,07624.98186,W,0.062,0.00,201018,10.90,W,A*01
$GPVTG,0.00,T,10.90,M,0.062,N,0.114,K,A*1B
$GPGGA,022905.00,3731.02641,N,07624.98186,W,1,09,0.93,9.4,M,-35.6,M,,*6F
$GPGSA,A,3,26,32,22,29,23,31,03,16,14,,,,1.77,0.93,1.51*00
$GPGSV,3,1,11,03,37,267,23,09,04,314,15,14,39,129,35,16,62,209,26*7E
$GPGSV,3,2,11,22,33,240,25,23,29,312,35,26,84,069,46,27,08,172,*79
$GPGSV,3,3,11,29,18,050,27,31,47,059,33,32,16,134,28*4C
$GPGLL,3731.02641,N,07624.98186,W,022905.00,A,A*79
$GPGST,022905.00,35,,,,3.3,2.6,3.8*52
$GPRMC,022906.00,A,3731.02644,N,07624.98186,W,0.081,0.00,201018,10.90,W,A*0A
$GPVTG,0.00,T,10.90,M,0.081,N,0.151,K,A*17
$GPGGA,022906.00,3731.02644,N,07624.98186,W,1,09,0.93,9.2,M,-35.6,M,,*6F
$GPGSA,A,3,26,32,22,29,23,31,03,16,14,,,,1.77,0.93,1.51*00
$GPGSV,3,1,11,03,37,267,23,09,04,314,15,14,39,129,35,16,62,209,26*7E
$GPGSV,3,2,11,22,33,240,25,23,29,312,35,26,84,069,46,27,08,172,*79
$GPGSV,3,3,11,29,18,050,27,31,47,059,33,32,16,134,28*4C
$GPGLL,3731.02644,N,07624.98186,W,022906.00,A,A*7F
$GPGST,022906.00,35,,,,3.3,2.6,3.8*51
$GPRMC,022907.00,A,3731.02644,N,07624.98188,W,0.076,0.00,201018,10.90,W,A*0D
$GPVTG,0.00,T,10.90,M,0.076,N,0.140,K,A*1F
$GPGGA,022907.00,3731.02644,N,07624.98188,W,1,09,0.93,9.1,M,-35.6,M,,*63
$GPGSA,A,3,26,32,22,29,23,31,03,16,14,,,,1.77,0.93,1.51*00
$GPGSV,3,1,11,03,37,267,24,09,04,314,13,14,39,129,35,16,62,209,26*7F
$GPGSV,3,2,11,22,33,240,25,23,29,312,35,26,84,069,46,27,08,172,*79
$GPGSV,3,3,11,29,18,050,28,31,47,059,33,32,16,134,28*43
$GPGLL,3731.02644,N,07624.98188,W,022907.00,A,A*70
$GPGST,022907.00,30,,,,3.3,2.6,3.8*55
