
=============================

Recommended Minimum:
$GPRMC,161022.00,A,3733.09996,N,07618.47187,W,0.049,91.62,031219,10.98,W,A*34

Velocity made good:
$GPVTG,91.62,T,102.61,M,0.049,N,0.091,K,A*1E

3D location and accuracy data:
$GPGGA,161022.00,3733.09996,N,07618.47187,W,1,08,1.24,23.7,M,-35.6,M,,*52

$GPGGA,         1   Global Positioning System Fix Data
161022.00,      2   time
3733.09996,     3   lat
N,              4   lat
07618.47187,    5   lon
W,              6   lon
1,              7   Fix quality
08,             8   Number of satellites being tracked
1.24,           9   Horizontal dilution of position
23.7,           10  Altitude, Meters, above mean sea level
M,              11  Altitude, Meters, above mean sea level
-35.6,          12  Height of geoid (mean sea level) above WGS84
M,              13  Height of geoid (mean sea level) above WGS84
,               14  time in seconds since last DGPS update
*52


GPS DOP and active satellites:
$GPGSA,A,3,32,15,24,20,21,10,27,13,,,,,1.84,1.24,1.36*08

Satellites in View:
$GPGSV,3,1,09,08,01,325,,10,38,306,40,13,08,052,11,15,39,053,29*7A
$GPGSV,3,2,09,20,66,329,36,21,64,220,23,24,60,115,39,27,13,295,26*7C
$GPGSV,3,3,09,32,20,247,36*47

Geographic Latitude and Longitude:
$GPGLL,3733.09996,N,07618.47187,W,161022.00,A,A*73

Position error statistics:
$GPGST,161022.00,40,,,,2.9,3.0,7.8*52

---

these may be vesper proprietary messages:

dunno:
$PVSP,ATS,A,161975,T,-110,12057,908*6A
$PVSP,ATS,B,162025,T,-111,11067,911*6F

dunno:
$PVSP,TXW,00000040*5A

vhf antenna vswr:
$PVSP,VSWR,10,248*16

maybe nmea port data/config:
$PVSP,IOP,0,38400,15*58
$PVSP,IOP,1,38400,0*6D
$PVSP,IOP,2,38400,15*5A
$PVSP,IOP,3,4800,0*5C

=============================

Recommended Minimum:

{"nmea":["$GPRMC","175841.00","A","3733.10199","N","07618.47404","W","0.113","91.62","031219","10.98","W","A*33\r"],
"valid":true,"cmd":2,"mssi":0,"time":"175841.00","lat":37.55169983333334,"lon":-76.30790066666667,"sog":0,"cog":91.62,"day":"031219","alt":10.98,"date":1071856721000}

Where:
     RMC          Recommended Minimum sentence C
     123519       Fix taken at 12:35:19 UTC
     A            Status A=active or V=Void.
     4807.038,N   Latitude 48 deg 07.038' N
     01131.000,E  Longitude 11 deg 31.000' E
     022.4        Speed over the ground in knots
     084.4        Track angle in degrees True
     230394       Date - 23rd of March 1994
     003.1,W      Magnetic Variation
     *6A          The checksum data, always begins with *

3D location and accuracy data:

{"nmea":["$GPGGA","175841.00","3733.10199","N","07618.47404","W","1","09","1.11","8.2","M","-35.6","M","","*60\r"],
"valid":true,"cmd":2,"mssi":0,"time":"175841.00","lat":37.55169983333334,"lon":-76.30790066666667,"sog":4.6,"cog":1.11,"alt":8.2,"date":1575395921207}

Where:
     GGA          Global Positioning System Fix Data
     123519       Fix taken at 12:35:19 UTC
     4807.038,N   Latitude 48 deg 07.038' N
     01131.000,E  Longitude 11 deg 31.000' E
     1            Fix quality: 0 = invalid
                               1 = GPS fix (SPS)
                               2 = DGPS fix
                               3 = PPS fix
                   4 = Real Time Kinematic
                   5 = Float RTK
                               6 = estimated (dead reckoning) (2.3 feature)
                   7 = Manual input mode
                   8 = Simulation mode
     08           Number of satellites being tracked
     0.9          Horizontal dilution of position
     545.4,M      Altitude, Meters, above mean sea level
     46.9,M       Height of geoid (mean sea level) above WGS84
                      ellipsoid
     (empty field) time in seconds since last DGPS update
     (empty field) DGPS station ID number
     *47          the checksum data, always begins with *

=============================



$GPGSV,3,1,10,03,38,283,31,14,50,118,29,16,49,202,27,22,40,254,31*70
$GPGSV,3,2,10,23,19,311,21,25,02,041,31,26,80,174,36,29,20,061,29*7C
$GPGSV,3,3,10,31,54,045,35,32,26,128,45*73
$GPGLL,3731.02523,N,07624.98192,W,020316.00,A,A*71
$GPGST,020316.00,32,,,,2.9,2.9,5.7*52

$GPRMC,020317.00,A,3731.02526,N,07624.98186,W,0.024,0.00,201018,10.90,W,A*0A
$GPVTG,0.00,T,10.90,M,0.024,N,0.044,K,A*1D
$GPGGA,020317.00,3731.02526,N,07624.98186,W,1,09,1.02,-4.5,M,-35.6,M,,*4E
$GPGSA,A,3,26,32,22,29,23,31,03,16,14,,,,2.00,1.02,1.72*0B
$GPGSV,3,1,10,03,38,283,32,14,50,118,29,16,49,202,27,22,40,254,31*73
$GPGSV,3,2,10,23,19,311,21,25,02,041,31,26,80,174,36,29,20,061,29*7C
$GPGSV,3,3,10,31,54,045,35,32,26,128,44*72
$GPGLL,3731.02526,N,07624.98186,W,020317.00,A,A*70
$GPGST,020317.00,32,,,,2.9,2.9,5.7*53

$GPRMC,020318.00,A,3731.02528,N,07624.98178,W,0.042,0.00,201018,10.90,W,A*0A
$GPVTG,0.00,T,10.90,M,0.042,N,0.078,K,A*12
$GPGGA,020318.00,3731.02528,N,07624.98178,W,1,09,1.02,-4.4,M,-35.6,M,,*4F
$GPGSA,A,3,26,32,22,29,23,31,03,16,14,,,,2.00,1.02,1.71*08
$GPGSV,3,1,10,03,38,283,32,14,50,118,29,16,49,202,26,22,40,254,31*72
$GPGSV,3,2,10,23,19,311,22,25,02,041,31,26,80,174,36,29,20,061,29*7F
$GPGSV,3,3,10,31,54,045,35,32,26,128,45*73
$GPGLL,3731.02528,N,07624.98178,W,020318.00,A,A*70
$GPGST,020318.00,32,,,,2.9,2.8,5.6*5C

$GPRMC,020319.00,A,3731.02528,N,07624.98166,W,0.023,0.00,201018,10.90,W,A*03
$GPVTG,0.00,T,10.90,M,0.023,N,0.042,K,A*1C
$GPGGA,020319.00,3731.02528,N,07624.98166,W,1,09,1.02,-4.3,M,-35.6,M,,*46
$GPGSA,A,3,26,32,22,29,23,31,03,16,14,,,,2.00,1.02,1.71*08
$GPGSV,3,1,10,03,38,283,32,14,50,118,29,16,49,202,26,22,40,254,31*72
$GPGSV,3,2,10,23,19,311,22,25,02,041,31,26,80,174,36,29,20,061,29*7F
$GPGSV,3,3,10,31,54,045,35,32,26,128,45*73
$GPGLL,3731.02528,N,07624.98166,W,020319.00,A,A*7E
$GPGST,020319.00,32,,,,2.9,2.8,5.6*5D

$GPRMC,020320.00,A,3731.02527,N,07624.98157,W,0.034,0.00,201018,10.90,W,A*02
$GPVTG,0.00,T,10.90,M,0.034,N,0.064,K,A*1E
$GPGGA,020320.00,3731.02527,N,07624.98157,W,1,09,1.02,-4.1,M,-35.6,M,,*43
$GPGSA,A,3,26,32,22,29,23,31,03,16,14,,,,2.00,1.02,1.71*08
$GPGSV,3,1,10,03,38,283,32,14,50,118,29,16,49,202,26,22,40,254,31*72
$GPGSV,3,2,10,23,19,311,22,25,02,041,31,26,80,174,36,29,20,061,29*7F
$GPGSV,3,3,10,31,54,045,34,32,26,128,45*72
$GPGLL,3731.02527,N,07624.98157,W,020320.00,A,A*79
$GPGST,020320.00,32,,,,2.9,2.8,5.6*57

$GPRMC,020321.00,A,3731.02529,N,07624.98149,W,0.014,0.00,201018,10.90,W,A*00
$GPVTG,0.00,T,10.90,M,0.014,N,0.026,K,A*1A
$GPGGA,020321.00,3731.02529,N,07624.98149,W,1,09,1.02,-4.0,M,-35.6,M,,*42
$GPGSA,A,3,26,32,22,29,23,31,03,16,14,,,,2.00,1.02,1.71*08
$GPGSV,3,1,10,03,38,283,33,14,50,118,28,16,49,202,27,22,40,254,31*73
$GPGSV,3,2,10,23,19,311,23,25,02,041,31,26,80,174,36,29,20,061,29*7E
$GPGSV,3,3,10,31,54,045,34,32,26,128,45*72
$GPGLL,3731.02529,N,07624.98149,W,020321.00,A,A*79
$GPGST,020321.00,27,,,,2.9,2.7,5.6*5D

$GPRMC,020322.00,A,3731.02532,N,07624.98141,W,0.060,0.00,201018,10.90,W,A*02
$GPVTG,0.00,T,10.90,M,0.060,N,0.112,K,A*1F
$GPGGA,020322.00,3731.02532,N,07624.98141,W,1,09,1.02,-4.0,M,-35.6,M,,*43
$GPGSA,A,3,26,32,22,29,23,31,03,16,14,,,,2.00,1.02,1.71*08
$GPGSV,3,1,10,03,38,283,33,14,50,118,29,16,49,202,29,22,40,254,30*7D
$GPGSV,3,2,10,23,19,311,24,25,02,041,32,26,80,174,36,29,20,061,29*7A
$GPGSV,3,3,10,31,54,045,33,32,26,128,44*74
$GPGLL,3731.02532,N,07624.98141,W,020322.00,A,A*78
$GPGST,020322.00,25,,,,3.0,2.7,5.6*54
$GPRMC,020323.00,A,3731.02536,N,07624.98134,W,0.037,0.00,201018,10.90,W,A*07
$GPVTG,0.00,T,10.90,M,0.037,N,0.068,K,A*11
$GPGGA,020323.00,3731.02536,N,07624.98134,W,1,09,1.02,-4.0,M,-35.6,M,,*44
$GPGSA,A,3,26,32,22,29,23,31,03,16,14,,,,2.00,1.02,1.71*08
$GPGSV,3,1,10,03,38,283,32,14,50,118,29,16,49,202,30,22,40,254,30*74
$GPGSV,3,2,10,23,19,311,25,25,02,041,32,26,80,174,36,29,20,061,30*73
$GPGSV,3,3,10,31,54,045,32,32,26,128,44*75
$GPGLL,3731.02536,N,07624.98134,W,020323.00,A,A*7F
$GPGST,020323.00,24,,,,3.0,2.7,5.6*54
$GPRMC,020324.00,A,3731.02540,N,07624.98127,W,0.025,0.00,201018,10.90,W,A*00
$GPVTG,0.00,T,10.90,M,0.025,N,0.047,K,A*1F
$GPGGA,020324.00,3731.02540,N,07624.98127,W,1,09,1.02,-4.0,M,-35.6,M,,*40
$GPGSA,A,3,26,32,22,29,23,31,03,16,14,,,,2.00,1.02,1.71*08
$GPGSV,3,1,10,03,38,283,32,14,50,118,30,16,49,202,31,22,40,254,30*7D
$GPGSV,3,2,10,23,19,311,26,25,02,041,32,26,80,174,36,29,20,061,30*70
$GPGSV,3,3,10,31,54,045,32,32,26,128,44*75
$GPGLL,3731.02540,N,07624.98127,W,020324.00,A,A*7B
$GPGST,020324.00,23,,,,3.0,2.7,5.5*57
$GPRMC,020325.00,A,3731.02538,N,07624.98122,W,0.097,0.00,201018,10.90,W,A*02
$GPVTG,0.00,T,10.90,M,0.097,N,0.179,K,A*1A
$GPGGA,020325.00,3731.02538,N,07624.98122,W,1,09,1.02,-3.9,M,-35.6,M,,*45
$GPGSA,A,3,26,32,22,29,23,31,03,16,14,,,,2.00,1.02,1.71*08
$GPGSV,3,1,10,03,38,283,32,14,50,118,30,16,49,202,31,22,39,253,31*75
$GPGSV,3,2,10,23,19,311,27,25,02,041,32,26,80,174,36,29,20,061,30*71
$GPGSV,3,3,10,31,54,045,30,32,26,128,44*77
$GPGLL,3731.02538,N,07624.98122,W,020325.00,A,A*70
$GPGST,020325.00,22,,,,3.0,2.6,5.5*56
$GPRMC,020326.00,A,3731.02543,N,07624.98115,W,0.006,0.00,201018,10.90,W,A*01
$GPVTG,0.00,T,10.90,M,0.006,N,0.011,K,A*1D
$GPGGA,020326.00,3731.02543,N,07624.98115,W,1,09,1.02,-4.0,M,-35.6,M,,*40
$GPGSA,A,3,26,32,22,29,23,31,03,16,14,,,,2.00,1.02,1.71*08
$GPGSV,3,1,10,03,38,283,33,14,50,118,30,16,49,202,32,22,39,253,32*74
$GPGSV,3,2,10,23,19,311,26,25,02,041,31,26,80,174,36,29,20,061,30*73
$GPGSV,3,3,10,31,54,045,30,32,26,128,44*77
$GPGLL,3731.02543,N,07624.98115,W,020326.00,A,A*7B
$GPGST,020326.00,22,,,,3.1,2.6,5.4*55
$GPRMC,020327.00,A,3731.02547,N,07624.98108,W,0.009,0.00,201018,10.90,W,A*07
$GPVTG,0.00,T,10.90,M,0.009,N,0.016,K,A*15
$GPGGA,020327.00,3731.02547,N,07624.98108,W,1,09,1.02,-3.9,M,-35.6,M,,*47
$GPGSA,A,3,26,32,22,29,23,31,03,16,14,,,,2.00,1.02,1.71*08
$GPGSV,3,1,10,03,38,283,33,14,50,118,31,16,49,202,32,22,39,253,32*75
$GPGSV,3,2,10,23,19,311,27,25,02,041,31,26,80,174,36,29,20,061,29*7A
$GPGSV,3,3,10,31,54,045,30,32,26,128,44*77
$GPGLL,3731.02547,N,07624.98108,W,020327.00,A,A*72
$GPGST,020327.00,21,,,,3.0,2.6,5.4*56
$GPRMC,020328.00,A,3731.02553,N,07624.98101,W,0.055,0.00,201018,10.90,W,A*0D
$GPVTG,0.00,T,10.90,M,0.055,N,0.101,K,A*1B
$GPGGA,020328.00,3731.02553,N,07624.98101,W,1,09,1.02,-3.9,M,-35.6,M,,*44
$GPGSA,A,3,26,32,22,29,23,31,03,16,14,,,,2.00,1.02,1.71*08
$GPGSV,3,1,10,03,38,283,32,14,50,118,31,16,49,202,32,22,39,253,32*74
$GPGSV,3,2,10,23,19,311,26,25,02,041,31,26,80,174,36,29,20,061,30*73
$GPGSV,3,3,10,31,54,045,29,32,26,128,44*7F
$GPGLL,3731.02553,N,07624.98101,W,020328.00,A,A*71
$GPGST,020328.00,22,,,,3.0,2.5,5.4*59
$GPRMC,020329.00,A,3731.02558,N,07624.98093,W,0.019,0.00,201018,10.90,W,A*05
$GPVTG,0.00,T,10.90,M,0.019,N,0.036,K,A*16
$GPGGA,020329.00,3731.02558,N,07624.98093,W,1,09,1.02,-3.9,M,-35.6,M,,*44
$GPGSA,A,3,26,32,22,29,23,31,03,16,14,,,,2.00,1.02,1.71*08
$GPGSV,3,1,10,03,38,283,33,14,50,118,31,16,49,202,32,22,39,253,32*75
$GPGSV,3,2,10,23,19,311,27,25,02,041,30,26,80,174,36,29,20,061,30*73
$GPGSV,3,3,10,31,54,045,29,32,26,128,45*7E
$GPGLL,3731.02558,N,07624.98093,W,020329.00,A,A*71
$GPGST,020329.00,22,,,,3.1,2.5,5.3*5E
$GPRMC,020330.00,A,3731.02564,N,07624.98084,W,0.026,0.00,201018,10.90,W,A*08
$GPVTG,0.00,T,10.90,M,0.026,N,0.047,K,A*1C
$GPGGA,020330.00,3731.02564,N,07624.98084,W,1,09,1.02,-3.8,M,-35.6,M,,*44
$GPGSA,A,3,26,32,22,29,23,31,03,16,14,,,,2.00,1.02,1.71*08
$GPGSV,3,1,10,03,38,283,33,14,50,118,31,16,49,202,32,22,39,253,32*75
$GPGSV,3,2,10,23,19,311,28,25,02,041,30,26,80,174,37,29,20,061,30*7D
$GPGSV,3,3,10,31,54,045,28,32,26,128,44*7E
$GPGLL,3731.02564,N,07624.98084,W,020330.00,A,A*70
$GPGST,020330.00,21,,,,3.1,2.5,5.3*55
$GPRMC,020331.00,A,3731.02567,N,07624.98076,W,0.020,0.00,201018,10.90,W,A*01
$GPVTG,0.00,T,10.90,M,0.020,N,0.037,K,A*1D
$GPGGA,020331.00,3731.02567,N,07624.98076,W,1,09,1.02,-3.6,M,-35.6,M,,*45
$GPGSA,A,3,26,32,22,29,23,31,03,16,14,,,,2.00,1.02,1.71*08
$GPGSV,3,1,10,03,38,283,33,14,50,118,31,16,49,202,32,22,39,253,31*76
$GPGSV,3,2,10,23,19,311,29,25,02,041,31,26,80,174,37,29,20,061,30*7D
$GPGSV,3,3,10,31,54,045,28,32,26,128,44*7E
$GPGLL,3731.02567,N,07624.98076,W,020331.00,A,A*7F
$GPGST,020331.00,21,,,,3.0,2.5,5.2*54
$GPRMC,020332.00,A,3731.02569,N,07624.98068,W,0.030,0.00,201018,10.90,W,A*02
$GPVTG,0.00,T,10.90,M,0.030,N,0.056,K,A*1B
$GPGGA,020332.00,3731.02569,N,07624.98068,W,1,09,1.02,-3.5,M,-35.6,M,,*44
$GPGSA,A,3,26,32,22,29,23,31,03,16,14,,,,2.00,1.02,1.71*08
$GPGSV,3,1,10,03,38,282,33,14,50,118,31,16,49,202,32,22,39,253,31*77
$GPGSV,3,2,10,23,19,311,29,25,02,041,30,26,80,174,37,29,20,061,30*7C
$GPGSV,3,3,10,31,54,045,27,32,26,128,45*70
$GPGLL,3731.02569,N,07624.98068,W,020332.00,A,A*7D
$GPGST,020332.00,22,,,,3.0,2.4,5.1*56
$GPRMC,020333.00,A,3731.02572,N,07624.98060,W,0.037,0.00,201018,10.90,W,A*06
$GPVTG,0.00,T,10.90,M,0.037,N,0.069,K,A*10
$GPGGA,020333.00,3731.02572,N,07624.98060,W,1,09,1.02,-3.4,M,-35.6,M,,*46
$GPGSA,A,3,26,32,22,29,23,31,03,16,14,,,,2.00,1.02,1.71*08
$GPGSV,3,1,10,03,38,282,33,14,50,118,31,16,49,202,32,22,39,253,31*77
$GPGSV,3,2,10,23,19,311,29,25,02,041,30,26,80,174,37,29,20,061,30*7C
$GPGSV,3,3,10,31,54,045,28,32,26,128,45*7F
$GPGLL,3731.02572,N,07624.98060,W,020333.00,A,A*7E
$GPGST,020333.00,21,,,,3.1,2.4,5.1*55
$GPRMC,020334.00,A,3731.02577,N,07624.98053,W,0.013,0.00,201018,10.90,W,A*02
$GPVTG,0.00,T,10.90,M,0.013,N,0.023,K,A*18
$GPGGA,020334.00,3731.02577,N,07624.98053,W,1,09,1.02,-3.4,M,-35.6,M,,*44
$GPGSA,A,3,26,32,22,29,23,31,03,16,14,,,,2.00,1.02,1.71*08
$GPGSV,3,1,10,03,38,282,33,14,50,118,31,16,49,202,33,22,39,253,31*76
$GPGSV,3,2,10,23,19,311,29,25,02,041,30,26,80,174,37,29,20,061,31*7D
$GPGSV,3,3,10,31,54,045,27,32,26,128,44*71
$GPGLL,3731.02577,N,07624.98053,W,020334.00,A,A*7C
$GPGST,020334.00,21,,,,3.1,2.4,5.0*53
$GPRMC,020335.00,A,3731.02580,N,07624.98047,W,0.012,0.00,201018,10.90,W,A*0F
$GPVTG,0.00,T,10.90,M,0.012,N,0.022,K,A*18
$GPGGA,020335.00,3731.02580,N,07624.98047,W,1,09,1.02,-3.3,M,-35.6,M,,*4F
$GPGSA,A,3,26,32,22,29,23,31,03,16,14,,,,2.00,1.02,1.71*08
$GPGSV,3,1,10,03,38,282,33,14,50,118,32,16,49,202,33,22,39,253,31*75
$GPGSV,3,2,10,23,19,311,29,25,02,041,30,26,80,174,37,29,20,061,31*7D
$GPGSV,3,3,10,31,54,045,28,32,26,128,45*7F
$GPGLL,3731.02580,N,07624.98047,W,020335.00,A,A*70
$GPGST,020335.00,21,,,,3.0,2.4,5.0*53
$GPRMC,020336.00,A,3731.02584,N,07624.98041,W,0.026,0.00,201018,10.90,W,A*09
$GPVTG,0.00,T,10.90,M,0.026,N,0.048,K,A*13
$GPGGA,020336.00,3731.02584,N,07624.98041,W,1,09,1.02,-3.3,M,-35.6,M,,*4E
$GPGSA,A,3,26,32,22,29,23,31,03,16,14,,,,2.00,1.02,1.71*08
$GPGSV,3,1,10,03,38,282,33,14,50,118,31,16,49,202,32,22,39,253,31*77
$GPGSV,3,2,10,23,19,311,28,25,02,041,30,26,80,174,37,29,20,061,31*7C
$GPGSV,3,3,10,31,54,045,28,32,26,128,44*7E
$GPGLL,3731.02584,N,07624.98041,W,020336.00,A,A*71
$GPGST,020336.00,21,,,,3.1,2.4,4.9*59
$GPRMC,020337.00,A,3731.02588,N,07624.98034,W,0.023,0.00,201018,10.90,W,A*03
$GPVTG,0.00,T,10.90,M,0.023,N,0.043,K,A*1D
$GPGGA,020337.00,3731.02588,N,07624.98034,W,1,09,1.02,-3.3,M,-35.6,M,,*41
$GPGSA,A,3,26,32,22,29,23,31,03,16,14,,,,2.00,1.02,1.71*08
$GPGSV,3,1,10,03,38,282,33,14,50,118,31,16,49,202,32,22,39,253,31*77
$GPGSV,3,2,10,23,19,311,28,25,02,041,30,26,80,174,37,29,20,061,31*7C
$GPGSV,3,3,10,31,54,045,28,32,26,128,45*7F
$GPGLL,3731.02588,N,07624.98034,W,020337.00,A,A*7E
$GPGST,020337.00,22,,,,3.1,2.4,4.9*5B
$GPRMC,020338.00,A,3731.02592,N,07624.98028,W,0.033,0.00,201018,10.90,W,A*0B
$GPVTG,0.00,T,10.90,M,0.033,N,0.061,K,A*1C
$GPGGA,020338.00,3731.02592,N,07624.98028,W,1,09,1.02,-3.3,M,-35.6,M,,*48
$GPGSA,A,3,26,32,22,29,23,31,03,16,14,,,,2.00,1.02,1.71*08
$GPGSV,3,1,10,03,38,282,33,14,50,118,32,16,49,202,33,22,39,253,31*75
$GPGSV,3,2,10,23,19,311,28,25,02,041,30,26,80,174,37,29,20,061,31*7C
$GPGSV,3,3,10,31,54,045,28,32,26,128,45*7F
$GPGLL,3731.02592,N,07624.98028,W,020338.00,A,A*77
$GPGST,020338.00,21,,,,3.1,2.3,4.9*50
$GPRMC,020339.00,A,3731.02595,N,07624.98024,W,0.010,0.00,201018,10.90,W,A*00
$GPVTG,0.00,T,10.90,M,0.010,N,0.019,K,A*12
$GPGGA,020339.00,3731.02595,N,07624.98024,W,1,09,1.02,-3.3,M,-35.6,M,,*42
$GPGSA,A,3,26,32,22,29,23,31,03,16,14,,,,2.00,1.02,1.71*08
$GPGSV,3,1,10,03,38,282,33,14,50,118,31,16,49,202,33,22,39,253,30*77
$GPGSV,3,2,10,23,19,311,27,25,02,041,31,26,80,174,37,29,20,061,32*71
$GPGSV,3,3,10,31,54,045,28,32,26,128,45*7F
$GPGLL,3731.02595,N,07624.98024,W,020339.00,A,A*7D
$GPGST,020339.00,22,,,,3.1,2.3,4.8*53
$GPRMC,020340.00,A,3731.02596,N,07624.98022,W,0.030,0.00,201018,10.90,W,A*09
$GPVTG,0.00,T,10.90,M,0.030,N,0.056,K,A*1B
$GPGGA,020340.00,3731.02596,N,07624.98022,W,1,09,1.02,-3.3,M,-35.6,M,,*49
$GPGSA,A,3,26,32,22,29,23,31,03,16,14,,,,2.00,1.02,1.71*08
$GPGSV,3,1,10,03,38,282,33,14,50,118,32,16,49,202,32,22,39,253,30*75
$GPGSV,3,2,10,23,19,311,26,25,02,041,31,26,80,174,37,29,20,061,32*70
$GPGSV,3,3,10,31,54,045,28,32,26,128,45*7F
$GPGLL,3731.02596,N,07624.98022,W,020340.00,A,A*76
$GPGST,020340.00,22,,,,3.1,2.3,4.8*5D
$GPRMC,020341.00,A,3731.02596,N,07624.98021,W,0.021,0.00,201018,10.90,W,A*0B
$GPVTG,0.00,T,10.90,M,0.021,N,0.038,K,A*13
$GPGGA,020341.00,3731.02596,N,07624.98021,W,1,09,1.02,-3.3,M,-35.6,M,,*4B
$GPGSA,A,3,26,32,22,29,23,31,03,16,14,,,,2.00,1.02,1.71*08
$GPGSV,3,1,10,03,38,282,33,14,50,118,32,16,49,202,32,22,39,253,31*74
$GPGSV,3,2,10,23,19,311,26,25,02,041,31,26,80,174,37,29,20,061,32*70
$GPGSV,3,3,10,31,54,045,27,32,26,128,45*70
$GPGLL,3731.02596,N,07624.98021,W,020341.00,A,A*74
$GPGST,020341.00,23,,,,3.0,2.3,4.8*5C
$GPRMC,020342.00,A,3731.02597,N,07624.98019,W,0.017,0.00,201018,10.90,W,A*07
$GPVTG,0.00,T,10.90,M,0.017,N,0.032,K,A*1C
$GPGGA,020342.00,3731.02597,N,07624.98019,W,1,09,1.02,-3.3,M,-35.6,M,,*42
$GPGSA,A,3,26,32,22,29,23,31,03,16,14,,,,2.00,1.02,1.71*08
$GPGSV,3,1,10,03,38,282,33,14,50,118,32,16,49,202,33,22,39,253,31*75
$GPGSV,3,2,10,23,19,311,25,25,02,041,31,26,80,174,37,29,20,061,32*73
$GPGSV,3,3,10,31,54,045,28,32,26,128,45*7F
$GPGLL,3731.02597,N,07624.98019,W,020342.00,A,A*7D
$GPGST,020342.00,23,,,,3.0,2.3,4.7*50
!AIVDO,1,1,,B,H52ap3@<4iU1<t0000000000000,2*75
!AIVDO,1,1,,B,H52ap3DTFC@83Lm00000000h6220,0*5B
$GPRMC,020343.00,A,3731.02596,N,07624.98017,W,0.031,0.00,201018,10.90,W,A*0D
$GPVTG,0.00,T,10.90,M,0.031,N,0.058,K,A*14
$GPGGA,020343.00,3731.02596,N,07624.98017,W,1,09,1.02,-3.3,M,-35.6,M,,*4C
$GPGSA,A,3,26,32,22,29,23,31,03,16,14,,,,2.00,1.02,1.71*08
$GPGSV,3,1,10,03,38,282,33,14,49,118,32,16,49,202,32,22,39,253,31*7C
$GPGSV,3,2,10,23,19,311,24,25,02,041,31,26,80,174,37,29,20,061,32*72
$GPGSV,3,3,10,31,54,045,28,32,26,128,45*7F
$GPGLL,3731.02596,N,07624.98017,W,020343.00,A,A*73
$GPGST,020343.00,23,,,,3.0,2.3,4.7*51
$GPRMC,020344.00,A,3731.02595,N,07624.98016,W,0.050,0.00,201018,10.90,W,A*0F
$GPVTG,0.00,T,10.90,M,0.050,N,0.092,K,A*15
$GPGGA,020344.00,3731.02595,N,07624.98016,W,1,09,1.02,-3.3,M,-35.6,M,,*49
$GPGSA,A,3,26,32,22,29,23,31,03,16,14,,,,2.00,1.02,1.71*08
$GPGSV,3,1,10,03,38,282,33,14,49,118,32,16,49,202,32,22,39,253,31*7C
$GPGSV,3,2,10,23,19,311,24,25,02,041,31,26,80,174,37,29,20,061,32*72
$GPGSV,3,3,10,31,54,045,28,32,26,128,45*7F
$GPGLL,3731.02595,N,07624.98016,W,020344.00,A,A*76
$GPGST,020344.00,23,,,,3.0,2.3,4.7*56
$GPRMC,020345.00,A,3731.02594,N,07624.98015,W,0.011,0.00,201018,10.90,W,A*09
$GPVTG,0.00,T,10.90,M,0.011,N,0.020,K,A*19
$GPGGA,020345.00,3731.02594,N,07624.98015,W,1,09,1.02,-3.2,M,-35.6,M,,*4B
$GPGSA,A,3,26,32,22,29,23,31,03,16,14,,,,2.00,1.02,1.71*08
$GPGSV,3,1,10,03,38,282,33,14,49,118,32,16,50,203,32,22,39,253,31*75
$GPGSV,3,2,10,23,19,311,23,25,02,041,31,26,80,174,37,29,20,061,32*75
$GPGSV,3,3,10,31,54,045,28,32,26,128,45*7F
$GPGLL,3731.02594,N,07624.98015,W,020345.00,A,A*75
$GPGST,020345.00,24,,,,3.0,2.3,4.7*50
$GPRMC,020346.00,A,3731.02593,N,07624.98015,W,0.013,0.00,201018,10.90,W,A*0F
$GPVTG,0.00,T,10.90,M,0.013,N,0.024,K,A*1F
$GPGGA,020346.00,3731.02593,N,07624.98015,W,1,09,1.02,-3.2,M,-35.6,M,,*4F
$GPGSA,A,3,26,32,22,29,23,31,03,16,14,,,,2.00,1.02,1.71*08
$GPGSV,3,1,10,03,38,282,33,14,49,118,32,16,50,203,32,22,39,253,31*75
$GPGSV,3,2,10,23,19,311,22,25,02,041,31,26,80,174,37,29,20,061,32*74
$GPGSV,3,3,10,31,54,045,28,32,26,128,45*7F
$GPGLL,3731.02593,N,07624.98015,W,020346.00,A,A*71
$GPGST,020346.00,30,,,,3.0,2.3,4.7*56
$GPRMC,020347.00,A,3731.02593,N,07624.98014,W,0.023,0.00,201018,10.90,W,A*0C
$GPVTG,0.00,T,10.90,M,0.023,N,0.042,K,A*1C
$GPGGA,020347.00,3731.02593,N,07624.98014,W,1,09,1.02,-3.2,M,-35.6,M,,*4F
$GPGSA,A,3,26,32,22,29,23,31,03,16,14,,,,2.00,1.02,1.71*08
$GPGSV,3,1,10,03,38,282,33,14,49,118,32,16,50,203,31,22,39,253,31*76
$GPGSV,3,2,10,23,19,311,23,25,02,041,30,26,80,174,37,29,20,061,32*74
$GPGSV,3,3,10,31,54,045,29,32,26,128,45*7E
$GPGLL,3731.02593,N,07624.98014,W,020347.00,A,A*71
$GPGST,020347.00,24,,,,3.0,2.3,4.7*52
$GPRMC,020348.00,A,3731.02593,N,07624.98014,W,0.040,0.00,201018,10.90,W,A*06
$GPVTG,0.00,T,10.90,M,0.040,N,0.073,K,A*1B
$GPGGA,020348.00,3731.02593,N,07624.98014,W,1,09,1.02,-3.1,M,-35.6,M,,*43
$GPGSA,A,3,26,32,22,29,23,31,03,16,14,,,,2.00,1.02,1.71*08
$GPGSV,3,1,10,03,38,282,34,14,49,118,33,16,50,203,32,22,39,253,30*72
$GPGSV,3,2,10,23,19,311,22,25,02,041,30,26,80,174,37,29,20,061,32*75
$GPGSV,3,3,10,31,54,045,28,32,26,128,45*7F
$GPGLL,3731.02593,N,07624.98014,W,020348.00,A,A*7E
$GPGST,020348.00,30,,,,3.0,2.3,4.7*58
$GPRMC,020349.00,A,3731.02593,N,07624.98016,W,0.007,0.00,201018,10.90,W,A*06
$GPVTG,0.00,T,10.90,M,0.007,N,0.012,K,A*1F
$GPGGA,020349.00,3731.02593,N,07624.98016,W,1,09,1.02,-3.1,M,-35.6,M,,*40
$GPGSA,A,3,26,32,22,29,23,31,03,16,14,,,,2.00,1.02,1.71*08
$GPGSV,3,1,10,03,38,282,33,14,49,118,33,16,50,203,32,22,39,253,30*75
$GPGSV,3,2,10,23,19,311,22,25,02,041,30,26,80,174,37,29,20,061,32*75
$GPGSV,3,3,10,31,54,045,29,32,26,128,45*7E
$GPGLL,3731.02593,N,07624.98016,W,020349.00,A,A*7D
$GPGST,020349.00,30,,,,3.0,2.3,4.7*59
$GPRMC,020350.00,A,3731.02588,N,07624.98020,W,0.031,0.00,201018,10.90,W,A*04
$GPVTG,0.00,T,10.90,M,0.031,N,0.057,K,A*1B
$GPGGA,020350.00,3731.02588,N,07624.98020,W,1,09,1.24,-3.1,M,-35.6,M,,*43
$GPGSA,A,3,26,32,22,29,23,31,03,16,14,,,,2.43,1.24,2.08*06
$GPGSV,3,1,10,03,38,282,33,14,49,118,33,16,50,203,32,22,39,253,29*7D
$GPGSV,3,2,10,23,19,311,22,25,02,041,30,26,80,174,37,29,20,061,32*75
$GPGSV,3,3,10,31,54,045,29,32,26,128,45*7E
$GPGLL,3731.02588,N,07624.98020,W,020350.00,A,A*7A
$GPGST,020350.00,30,,,,3.0,2.3,4.6*50
$GPRMC,020351.00,A,3731.02587,N,07624.98022,W,0.025,0.00,201018,10.90,W,A*0D
$GPVTG,0.00,T,10.90,M,0.025,N,0.046,K,A*1E
$GPGGA,020351.00,3731.02587,N,07624.98022,W,1,09,1.02,-3.0,M,-35.6,M,,*4A
$GPGSA,A,3,26,32,22,29,23,31,03,16,14,,,,2.00,1.02,1.71*08
$GPGSV,3,1,10,03,38,282,33,14,49,118,33,16,50,203,31,22,39,253,29*7E
$GPGSV,3,2,10,23,19,311,22,25,02,041,30,26,80,174,37,29,20,061,31*76
$GPGSV,3,3,10,31,54,045,28,32,26,128,45*7F
$GPGLL,3731.02587,N,07624.98022,W,020351.00,A,A*76
$GPGST,020351.00,31,,,,3.0,2.3,4.6*50
$GPRMC,020352.00,A,3731.02590,N,07624.98023,W,0.076,0.00,201018,10.90,W,A*0F
$GPVTG,0.00,T,10.90,M,0.076,N,0.140,K,A*1F
$GPGGA,020352.00,3731.02590,N,07624.98023,W,1,09,1.02,-3.0,M,-35.6,M,,*4E
$GPGSA,A,3,26,32,22,29,23,31,03,16,14,,,,1.99,1.02,1.71*0B
$GPGSV,3,1,10,03,38,282,33,14,49,118,33,16,50,203,32,22,39,253,28*7C
$GPGSV,3,2,10,23,19,311,23,25,02,041,30,26,80,174,37,29,20,061,31*77
$GPGSV,3,3,10,31,54,045,29,32,26,128,45*7E
$GPGLL,3731.02590,N,07624.98023,W,020352.00,A,A*72
$GPGST,020352.00,25,,,,3.0,2.3,4.6*56
$GPRMC,020353.00,A,3731.02592,N,07624.98027,W,0.025,0.00,201018,10.90,W,A*0E
$GPVTG,0.00,T,10.90,M,0.025,N,0.046,K,A*1E
$GPGGA,020353.00,3731.02592,N,07624.98027,W,1,09,1.02,-3.1,M,-35.6,M,,*48
$GPGSA,A,3,26,32,22,29,23,31,03,16,14,,,,1.99,1.02,1.71*0B
$GPGSV,3,1,10,03,38,282,33,14,49,118,33,16,50,203,32,22,39,253,28*7C
$GPGSV,3,2,10,23,19,311,23,25,02,041,30,26,80,174,37,29,20,061,31*77
$GPGSV,3,3,10,31,54,045,30,32,26,128,45*76
$GPGLL,3731.02592,N,07624.98027,W,020353.00,A,A*75
$GPGST,020353.00,25,,,,3.0,2.3,4.6*57
$GPRMC,020354.00,A,3731.02593,N,07624.98029,W,0.028,0.00,201018,10.90,W,A*0B
$GPVTG,0.00,T,10.90,M,0.028,N,0.052,K,A*16
$GPGGA,020354.00,3731.02593,N,07624.98029,W,1,09,1.02,-3.1,M,-35.6,M,,*40
$GPGSA,A,3,26,32,22,29,23,31,03,16,14,,,,1.99,1.02,1.71*0B
$GPGSV,3,1,10,03,38,282,33,14,49,118,31,16,50,203,32,22,39,253,27*71
$GPGSV,3,2,10,23,19,311,24,25,02,041,30,26,80,174,37,29,20,061,30*71
$GPGSV,3,3,10,31,54,045,31,32,26,128,44*76
$GPGLL,3731.02593,N,07624.98029,W,020354.00,A,A*7D
$GPGST,020354.00,25,,,,3.0,2.3,4.6*50
$GPRMC,020355.00,A,3731.02599,N,07624.98030,W,0.060,0.00,201018,10.90,W,A*04
$GPVTG,0.00,T,10.90,M,0.060,N,0.111,K,A*1C
$GPGGA,020355.00,3731.02599,N,07624.98030,W,1,09,1.02,-3.2,M,-35.6,M,,*40
$GPGSA,A,3,26,32,22,29,23,31,03,16,14,,,,1.99,1.02,1.71*0B
$GPGSV,3,1,10,03,38,282,33,14,49,118,34,16,50,203,32,22,39,253,26*75
$GPGSV,3,2,10,23,19,311,25,25,02,041,29,26,80,173,39,29,20,061,30*71
$GPGSV,3,3,10,31,54,045,32,32,26,128,40*71
$GPGLL,3731.02599,N,07624.98030,W,020355.00,A,A*7E
$GPGST,020355.00,22,,,,3.0,2.3,4.5*55
$GPRMC,020356.00,A,3731.02602,N,07624.98034,W,0.029,0.00,201018,10.90,W,A*0F
$GPVTG,0.00,T,10.90,M,0.029,N,0.053,K,A*16
$GPGGA,020356.00,3731.02602,N,07624.98034,W,1,09,1.02,-3.3,M,-35.6,M,,*47
$GPGSA,A,3,26,32,22,29,23,31,03,16,14,,,,1.99,1.02,1.71*0B
$GPGSV,3,1,10,03,38,282,33,14,49,118,36,16,50,203,30,22,39,253,25*76
$GPGSV,3,2,10,23,19,311,23,25,02,041,28,26,80,173,40,29,20,061,29*70
$GPGSV,3,3,10,31,54,045,31,32,26,128,37*72
$GPGLL,3731.02602,N,07624.98034,W,020356.00,A,A*78
$GPGST,020356.00,25,,,,3.1,2.3,4.4*51
$GPRMC,020357.00,A,3731.02605,N,07624.98037,W,0.014,0.00,201018,10.90,W,A*04
$GPVTG,0.00,T,10.90,M,0.014,N,0.025,K,A*19
$GPGGA,020357.00,3731.02605,N,07624.98037,W,1,09,1.02,-3.3,M,-35.6,M,,*42
$GPGSA,A,3,26,32,22,29,23,31,03,16,14,,,,1.99,1.02,1.71*0B
$GPGSV,3,1,10,03,38,282,34,14,49,118,33,16,50,203,31,22,39,253,24*74
$GPGSV,3,2,10,23,19,311,24,25,02,041,29,26,80,173,39,29,20,061,30*70
$GPGSV,3,3,10,31,54,045,35,32,26,128,39*78
$GPGLL,3731.02605,N,07624.98037,W,020357.00,A,A*7D
$GPGST,020357.00,24,,,,3.0,2.3,4.3*57
$GPRMC,020358.00,A,3731.02605,N,07624.98041,W,0.081,0.00,201018,10.90,W,A*06
$GPVTG,0.00,T,10.90,M,0.081,N,0.149,K,A*1E
$GPGGA,020358.00,3731.02605,N,07624.98041,W,1,09,1.02,-3.4,M,-35.6,M,,*4B
$GPGSA,A,3,26,32,22,29,23,31,03,16,14,,,,1.99,1.02,1.71*0B
$GPGSV,3,1,10,03,38,282,31,14,49,118,36,16,50,203,32,22,39,253,24*77
$GPGSV,3,2,10,23,19,311,24,25,02,041,28,26,80,173,39,29,20,061,28*78
$GPGSV,3,3,10,31,54,045,31,32,26,128,39*7C
$GPGLL,3731.02605,N,07624.98041,W,020358.00,A,A*73
$GPGST,020358.00,25,,,,3.1,2.3,4.3*58
$GPRMC,020359.00,A,3731.02613,N,07624.98040,W,0.090,0.00,201018,10.90,W,A*01
$GPVTG,0.00,T,10.90,M,0.090,N,0.167,K,A*12
$GPGGA,020359.00,3731.02613,N,07624.98040,W,1,09,1.02,-3.4,M,-35.6,M,,*4C
$GPGSA,A,3,26,32,22,29,23,31,03,16,14,,,,1.99,1.02,1.71*0B
$GPGSV,3,1,10,03,38,282,35,14,49,118,32,16,50,203,30,22,39,253,31*71
$GPGSV,3,2,10,23,19,311,26,25,02,041,29,26,80,173,37,29,20,061,27*7A
$GPGSV,3,3,10,31,54,045,34,32,26,128,45*72
$GPGLL,3731.02613,N,07624.98040,W,020359.00,A,A*74
$GPGST,020359.00,23,,,,3.2,2.3,4.3*5C
$GPRMC,020400.00,A,3731.02611,N,07624.98040,W,0.106,0.00,201018,10.90,W,A*06
$GPVTG,0.00,T,10.90,M,0.106,N,0.197,K,A*13
$GPGGA,020400.00,3731.02611,N,07624.98040,W,1,09,1.02,-3.5,M,-35.6,M,,*44
$GPGSA,A,3,26,32,22,29,23,31,03,16,14,,,,1.99,1.02,1.71*0B
$GPGSV,3,1,10,03,38,282,30,14,49,118,27,16,50,203,33,22,39,253,23*70
$GPGSV,3,2,10,23,19,311,25,25,02,041,19,26,80,173,35,29,20,061,32*7C
$GPGSV,3,3,10,31,54,046,25,32,26,128,44*70
$GPGLL,3731.02611,N,07624.98040,W,020400.00,A,A*7D
$GPGST,020400.00,31,,,,3.2,2.4,4.3*53
$GPRMC,020401.00,A,3731.02602,N,07624.98050,W,0.060,0.00,201018,10.90,W,A*05
$GPVTG,0.00,T,10.90,M,0.060,N,0.111,K,A*1C
$GPGGA,020401.00,3731.02602,N,07624.98050,W,1,09,1.02,-3.5,M,-35.6,M,,*46
$GPGSA,A,3,26,32,22,29,23,31,03,16,14,,,,1.99,1.02,1.71*0B
$GPGSV,3,1,10,03,38,282,27,14,49,118,26,16,50,203,36,22,39,253,25*74
$GPGSV,3,2,10,23,19,311,31,25,02,041,18,26,80,173,26,29,20,061,35*7D
$GPGSV,3,3,10,31,54,046,31,32,26,128,45*74
$GPGLL,3731.02602,N,07624.98050,W,020401.00,A,A*7F
$GPGST,020401.00,31,,,,3.2,2.4,4.4*55
$GPRMC,020402.00,A,3731.02587,N,07624.98059,W,0.052,0.00,201018,10.90,W,A*00
$GPVTG,0.00,T,10.90,M,0.052,N,0.096,K,A*13
$GPGGA,020402.00,3731.02587,N,07624.98059,W,1,09,1.02,-3.6,M,-35.6,M,,*41
$GPGSA,A,3,26,32,22,29,23,31,03,16,14,,,,1.99,1.02,1.71*0B
$GPGSV,3,1,10,03,38,282,25,14,49,118,26,16,50,203,35,22,39,253,27*77
$GPGSV,3,2,10,23,19,311,29,25,02,041,20,26,80,173,22,29,20,061,34*7A
$GPGSV,3,3,10,31,54,046,22,32,26,128,45*76
$GPGLL,3731.02587,N,07624.98059,W,020402.00,A,A*7B
$GPGST,020402.00,43,,,,3.2,2.5,4.5*53
$GPRMC,020403.00,A,3731.02585,N,07624.98059,W,0.059,0.00,201018,10.90,W,A*08
$GPVTG,0.00,T,10.90,M,0.059,N,0.110,K,A*17
$GPGGA,020403.00,3731.02585,N,07624.98059,W,1,09,1.02,-3.7,M,-35.6,M,,*43
$GPGSA,A,3,26,32,22,29,23,31,03,16,14,,,,1.99,1.02,1.71*0B
$GPGSV,3,1,10,03,38,282,26,14,49,118,33,16,50,203,35,22,39,253,28*7F
$GPGSV,3,2,10,23,19,311,29,25,02,041,22,26,80,173,36,29,20,061,33*7A
$GPGSV,3,3,10,31,54,046,30,32,26,128,47*77
$GPGLL,3731.02585,N,07624.98059,W,020403.00,A,A*78
$GPGST,020403.00,25,,,,3.1,2.5,4.7*53
$GPRMC,020404.00,A,3731.02593,N,07624.98055,W,0.032,0.00,201018,10.90,W,A*09
$GPVTG,0.00,T,10.90,M,0.032,N,0.059,K,A*16
$GPGGA,020404.00,3731.02593,N,07624.98055,W,1,09,1.02,-3.6,M,-35.6,M,,*4E
$GPGSA,A,3,26,32,22,29,23,31,03,16,14,,,,1.99,1.02,1.71*0B
$GPGSV,3,1,10,03,38,282,32,14,49,118,33,16,50,203,24,22,39,253,29*7B
$GPGSV,3,2,10,23,19,311,27,25,02,041,24,26,80,173,35,29,20,061,31*73
$GPGSV,3,3,10,31,54,046,34,32,26,128,45*71
$GPGLL,3731.02593,N,07624.98055,W,020404.00,A,A*74
$GPGST,020404.00,26,,,,3.1,2.5,4.7*57
$GPRMC,020405.00,A,3731.02601,N,07624.98049,W,0.059,0.00,201018,10.90,W,A*00
$GPVTG,0.00,T,10.90,M,0.059,N,0.109,K,A*1F
$GPGGA,020405.00,3731.02601,N,07624.98049,W,1,09,1.02,-3.4,M,-35.6,M,,*48
$GPGSA,A,3,26,32,22,29,23,31,03,16,14,,,,1.99,1.02,1.71*0B
$GPGSV,3,1,10,03,38,282,32,14,49,118,33,16,50,203,31,22,39,253,33*74
$GPGSV,3,2,10,23,19,311,28,25,02,041,31,26,80,173,37,29,20,061,24*7E
$GPGSV,3,3,10,31,54,046,33,32,26,128,45*76
$GPGLL,3731.02601,N,07624.98049,W,020405.00,A,A*70
$GPGST,020405.00,24,,,,3.2,2.6,4.8*5B
$GPRMC,020406.00,A,3731.02607,N,07624.98052,W,0.043,0.00,201018,10.90,W,A*04
$GPVTG,0.00,T,10.90,M,0.043,N,0.080,K,A*14
$GPGGA,020406.00,3731.02607,N,07624.98052,W,1,09,1.02,-3.1,M,-35.6,M,,*42
$GPGSA,A,3,26,32,22,29,23,31,03,16,14,,,,1.99,1.02,1.71*0B
$GPGSV,3,1,10,03,38,282,33,14,49,118,36,16,50,203,31,22,39,253,29*7B
$GPGSV,3,2,10,23,19,311,27,25,02,041,31,26,80,173,39,29,20,061,26*7D
$GPGSV,3,3,10,31,54,046,30,32,26,128,40*70
$GPGLL,3731.02607,N,07624.98052,W,020406.00,A,A*7F
$GPGST,020406.00,22,,,,3.3,2.6,4.7*50
$GPRMC,020407.00,A,3731.02613,N,07624.98056,W,0.010,0.00,201018,10.90,W,A*02
$GPVTG,0.00,T,10.90,M,0.010,N,0.019,K,A*12
$GPGGA,020407.00,3731.02613,N,07624.98056,W,1,09,1.02,-3.0,M,-35.6,M,,*43
$GPGSA,A,3,26,32,22,29,23,31,03,16,14,,,,1.99,1.02,1.71*0B
$GPGSV,3,1,10,03,38,282,34,14,49,118,33,16,50,203,30,22,39,253,29*78
$GPGSV,3,2,10,23,19,311,26,25,02,041,30,26,80,173,38,29,20,061,26*7C
$GPGSV,3,3,10,31,54,046,31,32,26,128,45*74
$GPGLL,3731.02613,N,07624.98056,W,020407.00,A,A*7F
$GPGST,020407.00,24,,,,3.4,2.6,4.6*51
$GPRMC,020408.00,A,3731.02618,N,07624.98057,W,0.049,0.00,201018,10.90,W,A*0B
$GPVTG,0.00,T,10.90,M,0.049,N,0.091,K,A*1E
$GPGGA,020408.00,3731.02618,N,07624.98057,W,1,09,1.02,-3.3,M,-35.6,M,,*45
$GPGSA,A,3,26,32,22,29,23,31,03,16,14,,,,1.99,1.02,1.71*0B
$GPGSV,3,1,10,03,38,282,34,14,49,118,34,16,50,203,31,22,39,253,30*76
$GPGSV,3,2,10,23,19,311,26,25,02,041,30,26,80,173,37,29,20,061,27*72
$GPGSV,3,3,10,31,54,046,32,32,26,128,46*74
$GPGLL,3731.02618,N,07624.98057,W,020408.00,A,A*7A
$GPGST,020408.00,27,,,,3.4,2.6,4.7*5C
$GPRMC,020409.00,A,3731.02623,N,07624.98057,W,0.086,0.00,201018,10.90,W,A*01
$GPVTG,0.00,T,10.90,M,0.086,N,0.159,K,A*18
$GPGGA,020409.00,3731.02623,N,07624.98057,W,1,09,1.02,-3.5,M,-35.6,M,,*4A
$GPGSA,A,3,26,32,22,29,23,31,03,16,14,,,,1.99,1.02,1.71*0B
$GPGSV,3,1,10,03,38,282,34,14,49,118,34,16,50,203,31,22,39,253,30*76
$GPGSV,3,2,10,23,19,311,25,25,02,041,30,26,80,173,37,29,20,061,28*7E
$GPGSV,3,3,10,31,54,046,32,32,26,128,45*77
$GPGLL,3731.02623,N,07624.98057,W,020409.00,A,A*73
$GPGST,020409.00,25,,,,3.4,2.6,4.8*50
$GPRMC,020410.00,A,3731.02626,N,07624.98060,W,0.082,0.00,201018,10.90,W,A*0C
$GPVTG,0.00,T,10.90,M,0.082,N,0.152,K,A*17
$GPGGA,020410.00,3731.02626,N,07624.98060,W,1,09,1.02,-3.7,M,-35.6,M,,*41
$GPGSA,A,3,26,32,22,29,23,31,03,16,14,,,,1.99,1.02,1.71*0B
$GPGSV,3,1,10,03,38,282,35,14,49,118,35,16,50,203,31,22,39,253,30*76
$GPGSV,3,2,10,23,19,311,25,25,02,041,29,26,80,173,36,29,20,061,29*76
$GPGSV,3,3,10,31,54,046,32,32,26,128,45*77
$GPGLL,3731.02626,N,07624.98060,W,020410.00,A,A*7A
$GPGST,020410.00,23,,,,3.4,2.5,4.9*5C
$GPRMC,020411.00,A,3731.02631,N,07624.98056,W,0.038,0.00,201018,10.90,W,A*0F
$GPVTG,0.00,T,10.90,M,0.038,N,0.071,K,A*16
$GPGGA,020411.00,3731.02631,N,07624.98056,W,1,09,1.02,-3.9,M,-35.6,M,,*4D
$GPGSA,A,3,26,32,22,29,23,31,03,16,14,,,,1.99,1.02,1.71*0B
$GPGSV,3,1,10,03,38,282,35,14,49,118,35,16,50,203,31,22,39,253,30*76
$GPGSV,3,2,10,23,19,311,25,25,02,041,29,26,80,173,36,29,20,061,29*76
$GPGSV,3,3,10,31,54,046,33,32,26,128,45*76
$GPGLL,3731.02631,N,07624.98056,W,020411.00,A,A*78
$GPGST,020411.00,22,,,,3.4,2.5,4.9*5C
$GPRMC,020412.00,A,3731.02634,N,07624.98059,W,0.026,0.00,201018,10.90,W,A*09
$GPVTG,0.00,T,10.90,M,0.026,N,0.047,K,A*1C
$GPGGA,020412.00,3731.02634,N,07624.98059,W,1,09,1.02,-4.2,M,-35.6,M,,*48
$GPGSA,A,3,26,32,22,29,23,31,03,16,14,,,,1.99,1.02,1.71*0B
$GPGSV,3,1,10,03,38,282,34,14,49,118,35,16,50,203,32,22,39,253,30*74
$GPGSV,3,2,10,23,19,311,25,25,02,041,28,26,80,173,36,29,20,061,29*77
$GPGSV,3,3,10,31,54,046,33,32,26,128,45*76
$GPGLL,3731.02634,N,07624.98059,W,020412.00,A,A*71
$GPGST,020412.00,22,,,,3.4,2.5,4.9*5F
$GPRMC,020413.00,A,3731.02640,N,07624.98061,W,0.030,0.00,201018,10.90,W,A*07
$GPVTG,0.00,T,10.90,M,0.030,N,0.056,K,A*1B
$GPGGA,020413.00,3731.02640,N,07624.98061,W,1,09,1.02,-4.4,M,-35.6,M,,*47
$GPGSA,A,3,26,32,22,29,23,31,03,16,14,,,,1.99,1.02,1.71*0B
$GPGSV,3,1,10,03,38,282,34,14,49,118,35,16,50,203,32,22,39,253,30*74
$GPGSV,3,2,10,23,19,311,24,25,02,041,28,26,80,173,36,29,20,061,30*7E
$GPGSV,3,3,10,31,54,046,33,32,26,128,45*76
$GPGLL,3731.02640,N,07624.98061,W,020413.00,A,A*78
$GPGST,020413.00,22,,,,3.3,2.5,4.9*59
$GPRMC,020414.00,A,3731.02640,N,07624.98063,W,0.039,0.00,201018,10.90,W,A*0B
$GPVTG,0.00,T,10.90,M,0.039,N,0.072,K,A*14
$GPGGA,020414.00,3731.02640,N,07624.98063,W,1,09,1.14,-4.4,M,-35.6,M,,*45
$GPGSA,A,3,26,32,22,29,23,31,03,16,14,,,,2.23,1.14,1.92*03
$GPGSV,3,1,10,03,38,282,34,14,49,118,35,16,50,203,32,22,39,253,30*74
$GPGSV,3,2,10,23,19,311,24,25,02,041,27,26,80,173,37,29,20,061,31*71
$GPGSV,3,3,10,31,54,046,33,32,26,128,45*76
$GPGLL,3731.02640,N,07624.98063,W,020414.00,A,A*7D
$GPGST,020414.00,17,,,,3.3,2.4,4.9*59
$GPRMC,020415.00,A,3731.02638,N,07624.98064,W,0.043,0.00,201018,10.90,W,A*0F
$GPVTG,0.00,T,10.90,M,0.043,N,0.080,K,A*14
$GPGGA,020415.00,3731.02638,N,07624.98064,W,1,09,1.14,-4.5,M,-35.6,M,,*4D
$GPGSA,A,3,26,32,22,29,23,31,03,16,14,,,,2.23,1.14,1.92*03
$GPGSV,3,1,10,03,38,282,34,14,49,118,35,16,50,203,32,22,39,253,30*74
$GPGSV,3,2,10,23,19,311,24,25,02,041,26,26,80,173,37,29,20,061,31*70
$GPGSV,3,3,10,31,54,046,33,32,26,128,45*76
$GPGLL,3731.02638,N,07624.98064,W,020415.00,A,A*74
$GPGST,020415.00,17,,,,3.3,2.4,4.8*59
$GPRMC,020416.00,A,3731.02634,N,07624.98066,W,0.012,0.00,201018,10.90,W,A*06
$GPVTG,0.00,T,10.90,M,0.012,N,0.022,K,A*18
$GPGGA,020416.00,3731.02634,N,07624.98066,W,1,09,1.14,-4.5,M,-35.6,M,,*40
$GPGSA,A,3,26,32,22,29,23,31,03,16,14,,,,2.23,1.14,1.92*03
$GPGSV,3,1,10,03,38,282,34,14,49,118,35,16,50,203,32,22,39,253,30*74
$GPGSV,3,2,10,23,19,311,24,25,02,041,26,26,80,173,37,29,20,061,31*70
$GPGSV,3,3,10,31,54,046,33,32,26,128,45*76
$GPGLL,3731.02634,N,07624.98066,W,020416.00,A,A*79
$GPGST,020416.00,17,,,,3.2,2.4,4.8*5B
$GPRMC,020417.00,A,3731.02633,N,07624.98065,W,0.027,0.00,201018,10.90,W,A*05
$GPVTG,0.00,T,10.90,M,0.027,N,0.050,K,A*1B
$GPGGA,020417.00,3731.02633,N,07624.98065,W,1,09,1.14,-4.5,M,-35.6,M,,*45
$GPGSA,A,3,26,32,22,29,23,31,03,16,14,,,,2.23,1.14,1.92*03
$GPGSV,3,1,10,03,38,282,34,14,49,118,35,16,50,203,32,22,39,253,31*75
$GPGSV,3,2,10,23,19,311,24,25,02,041,26,26,80,173,37,29,20,061,31*70
$GPGSV,3,3,10,31,54,046,33,32,26,128,45*76
$GPGLL,3731.02633,N,07624.98065,W,020417.00,A,A*7C
$GPGST,020417.00,16,,,,3.2,2.4,4.8*5B
$GPRMC,020418.00,A,3731.02627,N,07624.98066,W,0.023,0.00,201018,10.90,W,A*08
$GPVTG,0.00,T,10.90,M,0.023,N,0.042,K,A*1C
$GPGGA,020418.00,3731.02627,N,07624.98066,W,1,09,1.14,-4.5,M,-35.6,M,,*4C
$GPGSA,A,3,26,32,22,29,23,31,03,16,14,,,,2.23,1.14,1.92*03
$GPGSV,3,1,10,03,38,282,34,14,49,118,35,16,50,203,32,22,39,253,31*75
$GPGSV,3,2,10,23,19,311,23,25,02,041,27,26,80,173,37,29,20,061,32*75
$GPGSV,3,3,10,31,54,046,33,32,26,128,45*76
$GPGLL,3731.02627,N,07624.98066,W,020418.00,A,A*75
$GPGST,020418.00,16,,,,3.2,2.3,4.7*5C
$GPRMC,020419.00,A,3731.02624,N,07624.98068,W,0.022,0.00,201018,10.90,W,A*05
$GPVTG,0.00,T,10.90,M,0.022,N,0.040,K,A*1F
$GPGGA,020419.00,3731.02624,N,07624.98068,W,1,09,1.14,-4.5,M,-35.6,M,,*40
$GPGSA,A,3,26,32,22,29,23,31,03,16,14,,,,2.23,1.14,1.92*03
$GPGSV,3,1,10,03,38,282,35,14,49,118,35,16,50,203,32,22,39,253,31*74
$GPGSV,3,2,10,23,19,311,23,25,02,041,27,26,80,173,37,29,20,061,32*75
$GPGSV,3,3,10,31,54,046,33,32,26,128,45*76
$GPGLL,3731.02624,N,07624.98068,W,020419.00,A,A*79
$GPGST,020419.00,16,,,,3.1,2.3,4.7*5E
$GPRMC,020420.00,A,3731.02621,N,07624.98075,W,0.041,0.00,201018,10.90,W,A*03
$GPVTG,0.00,T,10.90,M,0.041,N,0.076,K,A*1F
$GPGGA,020420.00,3731.02621,N,07624.98075,W,1,09,1.23,-4.5,M,-35.6,M,,*47
$GPGSA,A,3,26,32,22,29,23,31,03,16,14,,,,2.35,1.23,2.01*09
$GPGSV,3,1,10,03,38,282,35,14,49,118,35,16,50,203,32,22,39,253,31*74
$GPGSV,3,2,10,23,19,311,23,25,02,041,27,26,80,173,37,29,20,061,31*76
$GPGSV,3,3,10,31,54,046,33,32,26,128,45*76
$GPGLL,3731.02621,N,07624.98075,W,020420.00,A,A*7A
$GPGST,020420.00,15,,,,3.1,2.3,4.7*57
$GPRMC,020421.00,A,3731.02618,N,07624.98083,W,0.035,0.00,201018,10.90,W,A*02
$GPVTG,0.00,T,10.90,M,0.035,N,0.065,K,A*1E
$GPGGA,020421.00,3731.02618,N,07624.98083,W,1,09,1.23,-4.6,M,-35.6,M,,*46
$GPGSA,A,3,26,32,22,29,23,31,03,16,14,,,,2.35,1.23,2.01*09
$GPGSV,3,1,10,03,38,282,35,14,49,118,35,16,50,203,31,22,39,253,31*77
$GPGSV,3,2,10,23,19,311,22,25,02,041,27,26,80,173,37,29,20,061,32*74
$GPGSV,3,3,10,31,54,046,33,32,26,128,45*76
$GPGLL,3731.02618,N,07624.98083,W,020421.00,A,A*78
$GPGST,020421.00,15,,,,3.1,2.3,4.7*56
!AIVDM,1,1,,A,B5NUjDP00>`S9aUGQ=FdKwc5WP06,0*56
$GPRMC,020422.00,A,3731.02613,N,07624.98088,W,0.029,0.00,201018,10.90,W,A*0C
$GPVTG,0.00,T,10.90,M,0.029,N,0.054,K,A*11
$GPGGA,020422.00,3731.02613,N,07624.98088,W,1,09,1.23,-4.5,M,-35.6,M,,*46
$GPGSA,A,3,26,32,22,29,23,31,03,16,14,,,,2.35,1.23,2.01*09
$GPGSV,3,1,10,03,38,282,35,14,49,118,35,16,50,203,31,22,39,253,31*77
$GPGSV,3,2,10,23,19,311,21,25,02,041,28,26,80,173,38,29,20,061,32*77
$GPGSV,3,3,10,31,54,046,33,32,26,128,45*76
$GPGLL,3731.02613,N,07624.98088,W,020422.00,A,A*7B
$GPGST,020422.00,15,,,,3.1,2.3,4.6*54
$GPRMC,020423.00,A,3731.02610,N,07624.98090,W,0.005,0.00,201018,10.90,W,A*09
$GPVTG,0.00,T,10.90,M,0.005,N,0.009,K,A*17
$GPGGA,020423.00,3731.02610,N,07624.98090,W,1,09,1.02,-4.5,M,-35.6,M,,*4E
$GPGSA,A,3,26,32,22,29,23,31,03,16,14,,,,1.99,1.02,1.71*0B
$GPGSV,3,1,10,03,38,282,35,14,49,118,35,16,50,203,32,22,39,253,30*75
$GPGSV,3,2,10,23,19,311,22,25,02,041,29,26,80,173,37,29,20,061,32*7A
$GPGSV,3,3,10,31,54,046,33,32,26,128,45*76
$GPGLL,3731.02610,N,07624.98090,W,020423.00,A,A*70
$GPGST,020423.00,28,,,,3.0,2.3,4.6*5A
$GPRMC,020424.00,A,3731.02608,N,07624.98088,W,0.033,0.00,201018,10.90,W,A*0B
$GPVTG,0.00,T,10.90,M,0.033,N,0.061,K,A*1C
$GPGGA,020424.00,3731.02608,N,07624.98088,W,1,09,1.02,-4.4,M,-35.6,M,,*48
$GPGSA,A,3,26,32,22,29,23,31,03,16,14,,,,1.99,1.02,1.71*0B
$GPGSV,3,1,10,03,38,282,35,14,49,118,35,16,50,203,32,22,39,253,31*74
$GPGSV,3,2,10,23,19,311,22,25,02,041,29,26,80,173,38,29,20,061,32*75
$GPGSV,3,3,10,31,54,046,33,32,26,128,45*76
$GPGLL,3731.02608,N,07624.98088,W,020424.00,A,A*77
$GPGST,020424.00,27,,,,3.0,2.2,4.5*50
$GPRMC,020425.00,A,3731.02603,N,07624.98088,W,0.027,0.00,201018,10.90,W,A*04
$GPVTG,0.00,T,10.90,M,0.027,N,0.050,K,A*1B
$GPGGA,020425.00,3731.02603,N,07624.98088,W,1,09,1.14,-4.3,M,-35.6,M,,*42
$GPGSA,A,3,26,32,22,29,23,31,03,16,14,,,,2.23,1.14,1.92*03
$GPGSV,3,1,10,03,38,282,35,14,49,118,36,16,50,203,32,22,39,253,31*77
$GPGSV,3,2,10,23,19,311,22,25,02,041,29,26,80,173,38,29,20,061,32*75
$GPGSV,3,3,10,31,54,046,33,32,26,128,45*76
$GPGLL,3731.02603,N,07624.98088,W,020425.00,A,A*7D
$GPGST,020425.00,15,,,,3.0,2.2,4.5*50
$GPRMC,020426.00,A,3731.02598,N,07624.98088,W,0.007,0.00,201018,10.90,W,A*04
$GPVTG,0.00,T,10.90,M,0.007,N,0.013,K,A*1E
$GPGGA,020426.00,3731.02598,N,07624.98088,W,1,09,1.14,-4.2,M,-35.6,M,,*41
$GPGSA,A,3,26,32,22,29,23,31,03,16,14,,,,2.23,1.14,1.92*03
$GPGSV,3,1,10,03,38,282,35,14,49,118,36,16,50,203,32,22,39,253,31*77
$GPGSV,3,2,10,23,19,311,23,25,02,041,29,26,80,173,38,29,20,061,32*74
$GPGSV,3,3,10,31,54,046,33,32,26,128,45*76
$GPGLL,3731.02598,N,07624.98088,W,020426.00,A,A*7F
$GPGST,020426.00,15,,,,3.0,2.2,4.4*52
$GPRMC,020427.00,A,3731.02592,N,07624.98088,W,0.041,0.00,201018,10.90,W,A*0D
$GPVTG,0.00,T,10.90,M,0.041,N,0.077,K,A*1E
$GPGGA,020427.00,3731.02592,N,07624.98088,W,1,09,1.14,-4.0,M,-35.6,M,,*48
$GPGSA,A,3,26,32,22,29,23,31,03,16,14,,,,2.23,1.14,1.92*03
$GPGSV,3,1,10,03,38,282,35,14,49,118,36,16,50,203,32,22,39,253,31*77
$GPGSV,3,2,10,23,19,311,24,25,02,041,29,26,80,173,38,29,20,061,32*73
$GPGSV,3,3,10,31,54,046,33,32,26,128,45*76
$GPGLL,3731.02592,N,07624.98088,W,020427.00,A,A*74
$GPGST,020427.00,15,,,,2.9,2.2,4.4*5B
$GPRMC,020428.00,A,3731.02588,N,07624.98088,W,0.033,0.00,201018,10.90,W,A*0C
$GPVTG,0.00,T,10.90,M,0.033,N,0.060,K,A*1D
$GPGGA,020428.00,3731.02588,N,07624.98088,W,1,09,1.02,-4.0,M,-35.6,M,,*4B
$GPGSA,A,3,26,32,22,29,23,31,03,16,14,,,,1.99,1.02,1.71*0B
$GPGSV,3,1,10,03,38,282,34,14,49,118,36,16,50,203,32,22,39,253,31*76
$GPGSV,3,2,10,23,19,311,24,25,02,041,28,26,80,173,38,29,20,061,32*72
$GPGSV,3,3,10,31,54,046,33,32,26,128,45*76
$GPGLL,3731.02588,N,07624.98088,W,020428.00,A,A*70
$GPGST,020428.00,21,,,,2.9,2.2,4.3*54
$GPRMC,020429.00,A,3731.02586,N,07624.98089,W,0.011,0.00,201018,10.90,W,A*02
$GPVTG,0.00,T,10.90,M,0.011,N,0.020,K,A*19
$GPGGA,020429.00,3731.02586,N,07624.98089,W,1,09,1.02,-4.0,M,-35.6,M,,*45
$GPGSA,A,3,26,32,22,29,23,31,03,16,14,,,,1.99,1.02,1.71*0B
$GPGSV,3,1,10,03,38,282,34,14,49,118,36,16,50,203,32,22,39,253,31*76
$GPGSV,3,2,10,23,19,311,25,25,02,041,28,26,80,173,38,29,20,061,32*73
$GPGSV,3,3,10,31,54,046,33,32,26,128,45*76
$GPGLL,3731.02586,N,07624.98089,W,020429.00,A,A*7E
$GPGST,020429.00,20,,,,2.9,2.1,4.3*57
$GPRMC,020430.00,A,3731.02580,N,07624.98088,W,0.042,0.00,201018,10.90,W,A*0B
$GPVTG,0.00,T,10.90,M,0.042,N,0.078,K,A*12
$GPGGA,020430.00,3731.02580,N,07624.98088,W,1,09,1.14,-3.9,M,-35.6,M,,*43
$GPGSA,A,3,26,32,22,29,23,31,03,16,14,,,,2.23,1.14,1.91*00
$GPGSV,3,1,10,03,38,282,34,14,49,118,36,16,50,203,31,22,39,253,31*75
$GPGSV,3,2,10,23,19,311,26,25,02,041,28,26,80,173,38,29,20,061,33*71
$GPGSV,3,3,10,31,54,046,33,32,26,128,45*76
$GPGLL,3731.02580,N,07624.98088,W,020430.00,A,A*71
$GPGST,020430.00,16,,,,2.9,2.1,4.2*5B
$GPRMC,020431.00,A,3731.02576,N,07624.98095,W,0.026,0.00,201018,10.90,W,A*0D
$GPVTG,0.00,T,10.90,M,0.026,N,0.047,K,A*1C
$GPGGA,020431.00,3731.02576,N,07624.98095,W,1,09,1.09,-3.9,M,-35.6,M,,*4B
$GPGSA,A,3,26,32,22,29,23,31,03,16,14,,,,2.04,1.09,1.72*04
$GPGSV,3,1,10,03,38,282,34,14,49,118,36,16,50,203,32,22,39,253,31*76
$GPGSV,3,2,10,23,19,311,26,25,02,041,28,26,80,173,38,29,20,061,32*70
$GPGSV,3,3,10,31,54,046,33,32,26,128,45*76
$GPGLL,3731.02576,N,07624.98095,W,020431.00,A,A*75
$GPGST,020431.00,19,,,,2.8,2.1,4.2*54
$GPRMC,020432.00,A,3731.02573,N,07624.98098,W,0.007,0.00,201018,10.90,W,A*05
$GPVTG,0.00,T,10.90,M,0.007,N,0.014,K,A*19
$GPGGA,020432.00,3731.02573,N,07624.98098,W,1,09,1.02,-4.0,M,-35.6,M,,*45
$GPGSA,A,3,26,32,22,29,23,31,03,16,14,,,,1.99,1.02,1.71*0B
$GPGSV,3,1,10,03,38,282,34,14,49,118,36,16,50,203,32,22,39,253,31*76
$GPGSV,3,2,10,23,19,311,27,25,02,041,27,26,80,173,38,29,20,061,33*7F
$GPGSV,3,3,10,31,54,046,33,32,26,128,45*76
$GPGLL,3731.02573,N,07624.98098,W,020432.00,A,A*7E
$GPGST,020432.00,18,,,,2.8,2.1,4.1*55
$GPRMC,020433.00,A,3731.02569,N,07624.98100,W,0.034,0.00,201018,10.90,W,A*0F
$GPVTG,0.00,T,10.90,M,0.034,N,0.064,K,A*1E
$GPGGA,020433.00,3731.02569,N,07624.98100,W,1,09,1.02,-4.0,M,-35.6,M,,*4F
$GPGSA,A,3,26,32,22,29,23,31,03,16,14,,,,1.99,1.02,1.71*0B
$GPGSV,3,1,10,03,38,282,34,14,49,118,36,16,50,203,32,22,39,253,31*76
$GPGSV,3,2,10,23,19,311,27,25,02,041,27,26,80,173,38,29,20,061,33*7F
$GPGSV,3,3,10,31,54,046,34,32,26,128,45*71
$GPGLL,3731.02569,N,07624.98100,W,020433.00,A,A*74
$GPGST,020433.00,18,,,,2.8,2.1,4.1*54
$GPRMC,020434.00,A,3731.02565,N,07624.98104,W,0.024,0.00,201018,10.90,W,A*01
$GPVTG,0.00,T,10.90,M,0.024,N,0.045,K,A*1C
$GPGGA,020434.00,3731.02565,N,07624.98104,W,1,09,1.02,-4.0,M,-35.6,M,,*40
$GPGSA,A,3,26,32,22,29,23,31,03,16,14,,,,1.99,1.02,1.71*0B
$GPGSV,3,1,10,03,38,282,34,14,49,118,36,16,50,203,32,22,39,253,30*77
$GPGSV,3,2,10,23,19,311,28,25,02,041,27,26,80,173,38,29,20,061,33*70
$GPGSV,3,3,10,31,54,046,33,32,26,128,45*76
$GPGLL,3731.02565,N,07624.98104,W,020434.00,A,A*7B
$GPGST,020434.00,18,,,,2.8,2.1,4.1*53
$GPRMC,020435.00,A,3731.02564,N,07624.98108,W,0.037,0.00,201018,10.90,W,A*0F
$GPVTG,0.00,T,10.90,M,0.037,N,0.068,K,A*11
$GPGGA,020435.00,3731.02564,N,07624.98108,W,1,09,1.02,-4.0,M,-35.6,M,,*4C
$GPGSA,A,3,26,32,22,29,23,31,03,16,14,,,,1.99,1.02,1.71*0B
$GPGSV,3,1,10,03,38,282,35,14,49,118,36,16,50,203,32,22,39,253,30*76
$GPGSV,3,2,10,23,19,311,29,25,02,041,27,26,80,173,38,29,20,061,32*70
$GPGSV,3,3,10,31,54,046,33,32,26,128,45*76
$GPGLL,3731.02564,N,07624.98108,W,020435.00,A,A*77
$GPGST,020435.00,18,,,,2.7,2.1,4.0*5C
$GPRMC,020436.00,A,3731.02564,N,07624.98113,W,0.022,0.00,201018,10.90,W,A*02
$GPVTG,0.00,T,10.90,M,0.022,N,0.042,K,A*1D
$GPGGA,020436.00,3731.02564,N,07624.98113,W,1,09,1.02,-4.0,M,-35.6,M,,*45
$GPGSA,A,3,26,32,22,29,23,31,03,16,14,,,,1.99,1.02,1.71*0B
$GPGSV,3,1,10,03,38,282,35,14,49,118,36,16,50,203,32,22,39,253,30*76
$GPGSV,3,2,10,23,19,311,29,25,02,041,27,26,80,173,38,29,20,061,32*70
$GPGSV,3,3,10,31,54,046,33,32,26,128,45*76
$GPGLL,3731.02564,N,07624.98113,W,020436.00,A,A*7E
$GPGST,020436.00,18,,,,2.7,2.1,4.0*5F
$GPRMC,020437.00,A,3731.02563,N,07624.98117,W,0.024,0.00,201018,10.90,W,A*06
$GPVTG,0.00,T,10.90,M,0.024,N,0.045,K,A*1C
$GPGGA,020437.00,3731.02563,N,07624.98117,W,1,09,1.02,-4.0,M,-35.6,M,,*47
$GPGSA,A,3,26,32,22,29,23,31,03,16,14,,,,1.99,1.02,1.71*0B
$GPGSV,3,1,10,03,38,282,35,14,49,118,36,16,50,203,32,22,39,253,30*76
$GPGSV,3,2,10,23,19,311,30,25,02,041,27,26,80,173,38,29,20,061,32*78
$GPGSV,3,3,10,31,54,046,33,32,26,128,45*76
$GPGLL,3731.02563,N,07624.98117,W,020437.00,A,A*7C
$GPGST,020437.00,17,,,,2.7,2.0,4.0*50
$GPRMC,020438.00,A,3731.02563,N,07624.98120,W,0.023,0.00,201018,10.90,W,A*0A
$GPVTG,0.00,T,10.90,M,0.023,N,0.042,K,A*1C
$GPGGA,020438.00,3731.02563,N,07624.98120,W,1,09,1.02,-4.0,M,-35.6,M,,*4C
$GPGSA,A,3,26,32,22,29,23,31,03,16,14,,,,1.99,1.02,1.71*0B
$GPGSV,3,1,10,03,38,282,35,14,49,118,36,16,50,203,32,22,39,253,31*77
$GPGSV,3,2,10,23,19,311,31,25,02,041,27,26,80,173,38,29,20,061,32*79
$GPGSV,3,3,10,31,54,046,33,32,26,128,45*76
$GPGLL,3731.02563,N,07624.98120,W,020438.00,A,A*77
$GPGST,020438.00,16,,,,2.7,2.0,3.9*50
$GPRMC,020439.00,A,3731.02564,N,07624.98121,W,0.034,0.00,201018,10.90,W,A*0B
$GPVTG,0.00,T,10.90,M,0.034,N,0.062,K,A*18
$GPGGA,020439.00,3731.02564,N,07624.98121,W,1,09,1.02,-3.8,M,-35.6,M,,*44
$GPGSA,A,3,26,32,22,29,23,31,03,16,14,,,,1.99,1.02,1.71*0B
$GPGSV,3,1,10,03,38,282,35,14,49,118,36,16,50,203,32,22,39,253,31*77
$GPGSV,3,2,10,23,19,311,32,25,02,041,27,26,80,173,39,29,20,061,32*7B
$GPGSV,3,3,10,31,54,046,33,32,26,128,45*76
$GPGLL,3731.02564,N,07624.98121,W,020439.00,A,A*70
$GPGST,020439.00,16,,,,2.7,2.0,3.8*50
$GPRMC,020440.00,A,3731.02564,N,07624.98121,W,0.024,0.00,201018,10.90,W,A*04
$GPVTG,0.00,T,10.90,M,0.024,N,0.044,K,A*1D
$GPGGA,020440.00,3731.02564,N,07624.98121,W,1,09,1.02,-3.7,M,-35.6,M,,*45
$GPGSA,A,3,26,32,22,29,23,31,03,16,14,,,,1.99,1.02,1.71*0B
$GPGSV,3,1,10,03,38,282,35,14,49,118,35,16,50,203,32,22,39,253,31*74
$GPGSV,3,2,10,23,19,311,32,25,02,041,27,26,80,173,39,29,20,061,31*78
$GPGSV,3,3,10,31,54,046,33,32,26,128,45*76
$GPGLL,3731.02564,N,07624.98121,W,020440.00,A,A*7E
$GPGST,020440.00,17,,,,2.6,2.0,3.8*5E
$GPRMC,020441.00,A,3731.02562,N,07624.98121,W,0.036,0.00,201018,10.90,W,A*00
$GPVTG,0.00,T,10.90,M,0.036,N,0.067,K,A*1F
$GPGGA,020441.00,3731.02562,N,07624.98121,W,1,09,1.02,-3.6,M,-35.6,M,,*43
$GPGSA,A,3,26,32,22,29,23,31,03,16,14,,,,1.99,1.02,1.71*0B
$GPGSV,3,1,10,03,38,282,35,14,49,118,35,16,50,203,31,22,39,253,31*77
$GPGSV,3,2,10,23,19,311,32,25,02,041,26,26,80,173,39,29,20,061,32*7A
$GPGSV,3,3,10,31,54,046,33,32,26,128,45*76
$GPGLL,3731.02562,N,07624.98121,W,020441.00,A,A*79
$GPGST,020441.00,16,,,,2.6,2.0,3.7*51
$GPRMC,020442.00,A,3731.02562,N,07624.98122,W,0.012,0.00,201018,10.90,W,A*06
$GPVTG,0.00,T,10.90,M,0.012,N,0.021,K,A*1B
$GPGGA,020442.00,3731.02562,N,07624.98122,W,1,09,1.02,-3.6,M,-35.6,M,,*43
$GPGSA,A,3,26,32,22,29,23,31,03,16,14,,,,1.99,1.02,1.71*0B
$GPGSV,3,1,10,03,38,282,35,14,49,118,35,16,50,203,31,22,39,253,31*77
$GPGSV,3,2,10,23,19,311,33,25,02,041,25,26,80,173,39,29,20,061,31*7B
$GPGSV,3,3,10,31,54,046,33,32,26,128,45*76
$GPGLL,3731.02562,N,07624.98122,W,020442.00,A,A*79
$GPGST,020442.00,17,,,,2.6,2.0,3.6*52
!AIVDM,1,1,,A,H5NUjDQ<hv0LTr2222222222220,2*75
$GPRMC,020443.00,A,3731.02561,N,07624.98123,W,0.007,0.00,201018,10.90,W,A*01
$GPVTG,0.00,T,10.90,M,0.007,N,0.013,K,A*1E
$GPGGA,020443.00,3731.02561,N,07624.98123,W,1,09,1.02,-3.5,M,-35.6,M,,*43
$GPGSA,A,3,26,32,22,29,23,31,03,16,14,,,,1.99,1.02,1.71*0B
$GPGSV,3,1,10,03,38,281,35,14,49,118,35,16,50,203,32,22,39,253,30*76
$GPGSV,3,2,10,23,19,311,33,25,02,041,25,26,80,173,39,29,20,061,31*7B
$GPGSV,3,3,10,31,54,046,33,32,26,128,45*76
$GPGLL,3731.02561,N,07624.98123,W,020443.00,A,A*7A
$GPGST,020443.00,17,,,,2.6,1.9,3.6*59
$GPRMC,020444.00,A,3731.02561,N,07624.98122,W,0.013,0.00,201018,10.90,W,A*02
$GPVTG,0.00,T,10.90,M,0.013,N,0.025,K,A*1E
$GPGGA,020444.00,3731.02561,N,07624.98122,W,1,09,1.02,-3.5,M,-35.6,M,,*45
$GPGSA,A,3,26,32,22,29,23,31,03,16,14,,,,1.99,1.02,1.71*0B
$GPGSV,3,1,10,03,38,281,35,14,49,118,35,16,50,203,31,22,39,253,30*75
$GPGSV,3,2,10,23,19,311,33,25,02,041,24,26,80,173,39,29,20,061,31*7A
$GPGSV,3,3,10,31,54,046,33,32,26,128,45*76
$GPGLL,3731.02561,N,07624.98122,W,020444.00,A,A*7C
$GPGST,020444.00,17,,,,2.6,1.9,3.5*5D
$GPRMC,020445.00,A,3731.02560,N,07624.98122,W,0.028,0.00,201018,10.90,W,A*0A
$GPVTG,0.00,T,10.90,M,0.028,N,0.052,K,A*16
$GPGGA,020445.00,3731.02560,N,07624.98122,W,1,09,1.02,-3.4,M,-35.6,M,,*44
$GPGSA,A,3,26,32,22,29,23,31,03,16,14,,,,1.99,1.02,1.71*0B
$GPGSV,3,1,10,03,38,281,35,14,49,118,35,16,50,203,31,22,39,253,30*75
$GPGSV,3,2,10,23,19,311,33,25,02,041,23,26,80,173,39,29,20,061,32*7E
$GPGSV,3,3,10,31,54,046,33,32,26,128,45*76
$GPGLL,3731.02560,N,07624.98122,W,020445.00,A,A*7C
$GPGST,020445.00,17,,,,2.6,1.9,3.5*5C
$GPRMC,020446.00,A,3731.02559,N,07624.98121,W,0.023,0.00,201018,10.90,W,A*0B
$GPVTG,0.00,T,10.90,M,0.023,N,0.043,K,A*1D
$GPGGA,020446.00,3731.02559,N,07624.98121,W,1,09,1.02,-3.4,M,-35.6,M,,*4E
$GPGSA,A,3,26,32,22,29,23,31,03,16,14,,,,1.99,1.02,1.71*0B
$GPGSV,3,1,10,03,38,281,36,14,49,118,35,16,50,203,32,22,39,253,30*75
$GPGSV,3,2,10,23,19,311,33,25,02,041,22,26,80,173,39,29,20,061,31*7C
$GPGSV,3,3,10,31,54,046,32,32,26,128,45*77
$GPGLL,3731.02559,N,07624.98121,W,020446.00,A,A*76
$GPGST,020446.00,17,,,,2.6,1.9,3.4*5E
$GPRMC,020447.00,A,3731.02560,N,07624.98121,W,0.023,0.00,201018,10.90,W,A*00
$GPVTG,0.00,T,10.90,M,0.023,N,0.043,K,A*1D
$GPGGA,020447.00,3731.02560,N,07624.98121,W,1,09,1.02,-3.4,M,-35.6,M,,*45
$GPGSA,A,3,26,32,22,29,23,31,03,16,14,,,,1.99,1.02,1.71*0B
$GPGSV,3,1,10,03,38,281,36,14,49,118,35,16,50,203,31,22,39,253,30*76
$GPGSV,3,2,10,23,19,311,33,25,02,041,21,26,80,173,39,29,20,061,31*7F
$GPGSV,3,3,10,31,54,046,32,32,26,128,45*77
$GPGLL,3731.02560,N,07624.98121,W,020447.00,A,A*7D
$GPGST,020447.00,17,,,,2.6,1.9,3.4*5F
$GPRMC,020448.00,A,3731.02561,N,07624.98119,W,0.004,0.00,201018,10.90,W,A*00
$GPVTG,0.00,T,10.90,M,0.004,N,0.007,K,A*18
$GPGGA,020448.00,3731.02561,N,07624.98119,W,1,09,1.02,-3.4,M,-35.6,M,,*40
$GPGSA,A,3,26,32,22,29,23,31,03,16,14,,,,1.99,1.02,1.71*0B
$GPGSV,3,1,10,03,38,281,36,14,49,118,35,16,50,203,31,22,39,253,30*76
$GPGSV,3,2,10,23,19,311,33,25,02,041,21,26,80,173,39,29,20,061,31*7F
$GPGSV,3,3,10,31,54,046,32,32,26,128,45*77
$GPGLL,3731.02561,N,07624.98119,W,020448.00,A,A*78
$GPGST,020448.00,17,,,,2.6,1.9,3.3*57
$GPRMC,020449.00,A,3731.02562,N,07624.98117,W,0.020,0.00,201018,10.90,W,A*0A
$GPVTG,0.00,T,10.90,M,0.020,N,0.038,K,A*12
$GPGGA,020449.00,3731.02562,N,07624.98117,W,1,09,1.02,-3.3,M,-35.6,M,,*4B
$GPGSA,A,3,26,32,22,29,23,31,03,16,14,,,,1.99,1.02,1.71*0B
$GPGSV,3,1,10,03,38,281,36,14,49,118,35,16,50,203,31,22,39,253,31*77
$GPGSV,3,2,10,23,19,311,33,25,02,041,20,26,80,173,39,29,20,061,32*7D
$GPGSV,3,3,10,31,54,046,32,32,26,128,45*77
$GPGLL,3731.02562,N,07624.98117,W,020449.00,A,A*74
$GPGST,020449.00,16,,,,2.6,1.9,3.3*57
$GPRMC,020450.00,A,3731.02563,N,07624.98114,W,0.009,0.00,201018,10.90,W,A*0B
$GPVTG,0.00,T,10.90,M,0.009,N,0.017,K,A*14
$GPGGA,020450.00,3731.02563,N,07624.98114,W,1,09,1.02,-3.3,M,-35.6,M,,*41
$GPGSA,A,3,26,32,22,29,23,31,03,16,14,,,,1.99,1.02,1.71*0B
$GPGSV,3,1,10,03,38,281,36,14,49,118,35,16,50,203,31,22,39,253,31*77
$GPGSV,3,2,10,23,19,311,33,25,02,041,19,26,80,173,39,29,20,061,32*77
$GPGSV,3,3,10,31,54,046,32,32,26,128,45*77
$GPGLL,3731.02563,N,07624.98114,W,020450.00,A,A*7E
$GPGST,020450.00,16,,,,2.6,1.9,3.3*5F
$GPRMC,020451.00,A,3731.02563,N,07624.98110,W,0.033,0.00,201018,10.90,W,A*07
$GPVTG,0.00,T,10.90,M,0.033,N,0.061,K,A*1C
$GPGGA,020451.00,3731.02563,N,07624.98110,W,1,09,1.02,-3.2,M,-35.6,M,,*45
$GPGSA,A,3,26,32,22,29,23,31,03,16,14,,,,1.99,1.02,1.71*0B
$GPGSV,3,1,10,03,38,281,35,14,49,118,35,16,50,203,32,22,39,253,32*74
$GPGSV,3,2,10,23,19,311,33,25,02,041,18,26,80,173,39,29,20,061,32*76
$GPGSV,3,3,10,31,54,046,32,32,26,128,45*77
$GPGLL,3731.02563,N,07624.98110,W,020451.00,A,A*7B
$GPGST,020451.00,16,,,,2.5,1.9,3.2*5C
$GPRMC,020452.00,A,3731.02563,N,07624.98105,W,0.047,0.00,201018,10.90,W,A*03
$GPVTG,0.00,T,10.90,M,0.047,N,0.087,K,A*17
$GPGGA,020452.00,3731.02563,N,07624.98105,W,1,09,1.02,-3.2,M,-35.6,M,,*42
$GPGSA,A,3,26,32,22,29,23,31,03,16,14,,,,1.99,1.02,1.71*0B
$GPGSV,3,1,10,03,38,281,36,14,49,118,35,16,50,203,32,22,39,253,32*77
$GPGSV,3,2,10,23,19,311,33,25,02,041,19,26,80,173,39,29,20,061,32*77
$GPGSV,3,3,10,31,54,046,32,32,26,128,45*77
$GPGLL,3731.02563,N,07624.98105,W,020452.00,A,A*7C
$GPGST,020452.00,15,,,,2.5,1.8,3.2*5D
$GPRMC,020453.00,A,3731.02563,N,07624.98101,W,0.005,0.00,201018,10.90,W,A*00
$GPVTG,0.00,T,10.90,M,0.005,N,0.010,K,A*1F
$GPGGA,020453.00,3731.02563,N,07624.98101,W,1,09,1.02,-3.2,M,-35.6,M,,*47
$GPGSA,A,3,26,32,22,29,23,31,03,16,14,,,,1.99,1.02,1.71*0B
$GPGSV,3,1,10,03,38,281,36,14,49,118,35,16,50,203,32,22,39,253,32*77
$GPGSV,3,2,10,23,19,311,33,25,02,041,19,26,80,173,39,29,20,061,32*77
$GPGSV,3,3,10,31,54,046,32,32,26,128,45*77
$GPGLL,3731.02563,N,07624.98101,W,020453.00,A,A*79
$GPGST,020453.00,15,,,,2.5,1.8,3.2*5C
$GPRMC,020454.00,A,3731.02564,N,07624.98097,W,0.028,0.00,201018,10.90,W,A*01
$GPVTG,0.00,T,10.90,M,0.028,N,0.052,K,A*16
$GPGGA,020454.00,3731.02564,N,07624.98097,W,1,09,1.02,-3.2,M,-35.6,M,,*49
$GPGSA,A,3,26,32,22,29,23,31,03,16,14,,,,1.99,1.02,1.71*0B
$GPGSV,3,1,10,03,38,281,36,14,49,119,35,16,50,203,32,22,39,253,32*76
$GPGSV,3,2,10,23,19,311,33,25,02,041,19,26,80,173,39,29,20,061,32*77
$GPGSV,3,3,10,31,54,046,32,32,26,128,45*77
$GPGLL,3731.02564,N,07624.98097,W,020454.00,A,A*77
$GPGST,020454.00,15,,,,2.5,1.8,3.1*58
$GPRMC,020455.00,A,3731.02564,N,07624.98092,W,0.031,0.00,201018,10.90,W,A*0D
$GPVTG,0.00,T,10.90,M,0.031,N,0.058,K,A*14
$GPGGA,020455.00,3731.02564,N,07624.98092,W,1,09,1.02,-3.1,M,-35.6,M,,*4E
$GPGSA,A,3,26,32,22,29,23,31,03,16,14,,,,1.99,1.02,1.71*0B
$GPGSV,3,1,10,03,38,281,36,14,49,119,35,16,50,203,32,22,39,253,32*76
$GPGSV,3,2,10,23,19,311,33,25,02,041,19,26,80,173,39,29,20,061,32*77
$GPGSV,3,3,10,31,54,046,32,32,26,128,45*77
$GPGLL,3731.02564,N,07624.98092,W,020455.00,A,A*73
$GPGST,020455.00,15,,,,2.5,1.8,3.1*59
$GPRMC,020456.00,A,3731.02565,N,07624.98087,W,0.008,0.00,201018,10.90,W,A*01
$GPVTG,0.00,T,10.90,M,0.008,N,0.015,K,A*17
$GPGGA,020456.00,3731.02565,N,07624.98087,W,1,09,1.02,-3.1,M,-35.6,M,,*48
$GPGSA,A,3,26,32,22,29,23,31,03,16,14,,,,1.99,1.02,1.71*0B
$GPGSV,3,1,10,03,38,281,36,14,49,119,35,16,50,203,33,22,39,253,32*77
$GPGSV,3,2,10,23,19,311,33,25,02,041,17,26,80,173,39,29,20,061,33*78
$GPGSV,3,3,10,31,54,046,32,32,26,128,45*77
$GPGLL,3731.02565,N,07624.98087,W,020456.00,A,A*75
$GPGST,020456.00,15,,,,2.5,1.8,3.1*5A
$GPRMC,020457.00,A,3731.02566,N,07624.98082,W,0.031,0.00,201018,10.90,W,A*0C
$GPVTG,0.00,T,10.90,M,0.031,N,0.057,K,A*1B
$GPGGA,020457.00,3731.02566,N,07624.98082,W,1,09,1.02,-3.0,M,-35.6,M,,*4E
$GPGSA,A,3,26,32,22,29,23,31,03,16,14,,,,1.99,1.02,1.71*0B
$GPGSV,3,1,10,03,38,281,36,14,49,119,35,16,50,203,32,22,39,253,32*76
$GPGSV,3,2,10,23,19,311,33,25,02,041,17,26,80,173,39,29,20,061,33*78
$GPGSV,3,3,10,31,54,046,32,32,26,128,44*76
$GPGLL,3731.02566,N,07624.98082,W,020457.00,A,A*72
$GPGST,020457.00,15,,,,2.5,1.8,3.1*5B
$GPRMC,020458.00,A,3731.02566,N,07624.98077,W,0.006,0.00,201018,10.90,W,A*0D
$GPVTG,0.00,T,10.90,M,0.006,N,0.012,K,A*1E
$GPGGA,020458.00,3731.02566,N,07624.98077,W,1,09,1.02,-3.0,M,-35.6,M,,*4B
$GPGSA,A,3,26,32,22,29,23,31,03,16,14,,,,1.99,1.02,1.71*0B
$GPGSV,3,1,10,03,38,281,36,14,49,119,35,16,50,203,33,22,39,253,32*77
$GPGSV,3,2,10,23,19,311,33,25,02,041,18,26,80,173,39,29,20,061,33*77
$GPGSV,3,3,10,31,54,046,32,32,26,128,45*77
$GPGLL,3731.02566,N,07624.98077,W,020458.00,A,A*77
$GPGST,020458.00,15,,,,2.5,1.8,3.1*54
$GPRMC,020459.00,A,3731.02566,N,07624.98072,W,0.010,0.00,201018,10.90,W,A*0E
$GPVTG,0.00,T,10.90,M,0.010,N,0.019,K,A*12
$GPGGA,020459.00,3731.02566,N,07624.98072,W,1,09,1.02,-2.9,M,-35.6,M,,*47
$GPGSA,A,3,26,32,22,29,23,31,03,16,14,,,,1.99,1.02,1.71*0B
$GPGSV,3,1,10,03,38,281,36,14,49,119,35,16,50,203,33,22,39,253,32*77
$GPGSV,3,2,10,23,19,311,33,25,02,041,19,26,80,173,39,29,20,061,33*76
$GPGSV,3,3,10,31,54,046,31,32,26,128,45*74
$GPGLL,3731.02566,N,07624.98072,W,020459.00,A,A*73
$GPGST,020459.00,15,,,,2.4,1.8,3.0*55
$GPRMC,020500.00,A,3731.02567,N,07624.98067,W,0.013,0.00,201018,10.90,W,A*05
$GPVTG,0.00,T,10.90,M,0.013,N,0.024,K,A*1F
$GPGGA,020500.00,3731.02567,N,07624.98067,W,1,09,1.02,-2.9,M,-35.6,M,,*4F
$GPGSA,A,3,26,32,22,29,23,31,03,16,14,,,,1.99,1.02,1.71*0B
$GPGSV,3,1,10,03,38,281,36,14,49,119,36,16,50,203,33,22,39,253,32*74
$GPGSV,3,2,10,23,19,311,33,25,02,041,20,26,80,173,39,29,20,061,33*7C
$GPGSV,3,3,10,31,54,046,32,32,26,128,45*77
$GPGLL,3731.02567,N,07624.98067,W,020500.00,A,A*7B
$GPGST,020500.00,15,,,,2.4,1.8,3.0*58
$GPRMC,020501.00,A,3731.02568,N,07624.98061,W,0.020,0.00,201018,10.90,W,A*0D
$GPVTG,0.00,T,10.90,M,0.020,N,0.038,K,A*12
$GPGGA,020501.00,3731.02568,N,07624.98061,W,1,09,1.02,-2.8,M,-35.6,M,,*46
