$GPRMC,203537.00,A,3732.60162,N,07619.93731,W,0.020,77.90,201018,10.96,W,A*3A
$GPVTG,77.90,T,88.87,M,0.020,N,0.038,K,A*2C
$GPGGA,203537.00,3732.60162,N,07619.93731,W,1,06,1.48,-15.4,M,-35.6,M,,*75
$GPGSA,A,3,21,32,10,24,20,15,,,,,,,2.96,1.48,2.56*00
$GPGSV,2,1,08,08,03,314,31,10,46,313,40,15,35,057,38,20,74,341,35*71
$GPGSV,2,2,08,21,53,204,42,24,58,079,33,27,,,34,32,28,257,36*4D
$GPGLL,3732.60162,N,07619.93731,W,203537.00,A,A*7B
$GPGST,203537.00,10,,,,2.2,2.5,10*7E
$GPRMC,203538.00,A,3732.60174,N,07619.93740,W,0.047,77.90,201018,10.96,W,A*35
$GPVTG,77.90,T,88.87,M,0.047,N,0.087,K,A*29
$GPGGA,203538.00,3732.60174,N,07619.93740,W,1,06,1.48,-14.7,M,-35.6,M,,*79
$GPGSA,A,3,21,32,10,24,20,15,,,,,,,2.96,1.48,2.56*00
$GPGSV,2,1,08,08,03,314,31,10,46,313,39,15,35,057,36,20,74,341,35*71
$GPGSV,2,2,08,21,53,204,41,24,58,079,32,27,,,35,32,28,257,36*4E
$GPGLL,3732.60174,N,07619.93740,W,203538.00,A,A*75
$GPGST,203538.00,12,,,,2.2,2.5,9.7*52
$GPRMC,203539.00,A,3732.60181,N,07619.93751,W,0.039,77.90,201018,10.96,W,A*37
$GPVTG,77.90,T,88.87,M,0.039,N,0.072,K,A*2A
$GPGGA,203539.00,3732.60181,N,07619.93751,W,1,06,1.48,-14.1,M,-35.6,M,,*74
$GPGSA,A,3,21,32,10,24,20,15,,,,,,,2.96,1.48,2.56*00
$GPGSV,2,1,08,08,03,314,29,10,46,313,39,15,35,057,34,20,74,341,34*7B
$GPGSV,2,2,08,21,53,204,41,24,58,079,29,27,,,35,32,28,257,33*41
$GPGLL,3732.60181,N,07619.93751,W,203539.00,A,A*7E
$GPGST,203539.00,16,,,,2.1,2.4,9.6*54
!AIVDO,1,1,,B,B52ap3@006`a@H5Gf48hgwkUCP06,0*74
$GPRMC,203540.00,A,3732.60176,N,07619.93753,W,0.031,77.90,201018,10.96,W,A*3B
$GPVTG,77.90,T,88.87,M,0.031,N,0.057,K,A*25
$GPGGA,203540.00,3732.60176,N,07619.93753,W,1,06,1.48,-13.6,M,-35.6,M,,*70
$GPGSA,A,3,21,32,10,24,20,15,,,,,,,2.96,1.48,2.56*00
$GPGSV,2,1,08,08,03,314,28,10,46,313,37,15,35,057,35,20,74,341,34*75
$GPGSV,2,2,08,21,53,204,40,24,58,079,27,27,,,35,32,28,257,33*4E
$GPGLL,3732.60176,N,07619.93753,W,203540.00,A,A*7A
$GPGST,203540.00,17,,,,2.1,2.4,9.4*59
$GPRMC,203541.00,A,3732.60191,N,07619.93760,W,0.047,77.90,201018,10.96,W,A*32
$GPVTG,77.90,T,88.87,M,0.047,N,0.087,K,A*29
$GPGGA,203541.00,3732.60191,N,07619.93760,W,1,06,1.48,-12.8,M,-35.6,M,,*77
$GPGSA,A,3,21,32,10,24,20,15,,,,,,,2.96,1.48,2.56*00
$GPGSV,2,1,08,08,03,314,28,10,46,313,41,15,35,057,37,20,74,341,36*74
$GPGSV,2,2,08,21,53,204,43,24,58,079,26,27,,,36,32,28,257,35*49
$GPGLL,3732.60191,N,07619.93760,W,203541.00,A,A*72
$GPGST,203541.00,17,,,,2.0,2.4,9.1*5C
$GPRMC,203542.00,A,3732.60203,N,07619.93764,W,0.057,77.90,201018,10.96,W,A*3C
$GPVTG,77.90,T,88.87,M,0.057,N,0.105,K,A*23
$GPGGA,203542.00,3732.60203,N,07619.93764,W,1,06,1.48,-12.1,M,-35.6,M,,*71
$GPGSA,A,3,21,32,10,24,20,15,,,,,,,2.96,1.48,2.56*00
$GPGSV,2,1,08,08,03,314,29,10,46,313,40,15,35,057,37,20,74,341,36*74
$GPGSV,2,2,08,21,53,204,42,24,58,079,25,27,,,35,32,28,257,35*48
$GPGLL,3732.60203,N,07619.93764,W,203542.00,A,A*7D
$GPGST,203542.00,18,,,,2.0,2.3,8.8*5F
$GPRMC,203543.00,A,3732.60210,N,07619.93764,W,0.033,77.90,201018,10.96,W,A*3D
$GPVTG,77.90,T,88.87,M,0.033,N,0.060,K,A*23
$GPGGA,203543.00,3732.60210,N,07619.93764,W,1,06,1.48,-11.8,M,-35.6,M,,*78
$GPGSA,A,3,21,32,10,24,20,15,,,,,,,2.96,1.48,2.56*00
$GPGSV,2,1,08,08,03,314,29,10,46,313,39,15,35,057,38,20,74,341,36*75
$GPGSV,2,2,08,21,53,204,42,24,58,079,31,27,,,36,32,28,257,34*4F
$GPGLL,3732.60210,N,07619.93764,W,203543.00,A,A*7E
$GPGST,203543.00,13,,,,1.9,2.3,8.6*51
$GPRMC,203544.00,A,3732.60221,N,07619.93768,W,0.052,77.90,201018,10.96,W,A*33
$GPVTG,77.90,T,88.87,M,0.052,N,0.095,K,A*2E
$GPGGA,203544.00,3732.60221,N,07619.93768,W,1,06,1.48,-11.2,M,-35.6,M,,*7B
$GPGSA,A,3,21,32,10,24,20,15,,,,,,,2.96,1.48,2.56*00
$GPGSV,2,1,08,08,03,314,33,10,46,313,40,15,35,057,38,20,74,341,36*70
$GPGSV,2,2,08,21,53,204,40,24,58,079,31,27,,,35,32,28,257,37*4D
$GPGLL,3732.60221,N,07619.93768,W,203544.00,A,A*77
$GPGST,203544.00,11,,,,1.9,2.2,8.2*51
!AIVDM,1,1,,B,15NwH;0000JRb:`EOFp9G;1`26R@,0*75
!AIVDM,1,1,,B,H5NwD718uDpB1ALv22222222220,2*60
$GPRMC,203545.00,A,3732.60226,N,07619.93778,W,0.074,77.90,201018,10.96,W,A*30
$GPVTG,77.90,T,88.87,M,0.074,N,0.138,K,A*2C
$GPGGA,203545.00,3732.60226,N,07619.93778,W,1,06,1.48,-10.8,M,-35.6,M,,*77
$GPGSA,A,3,21,32,10,24,20,15,,,,,,,2.96,1.48,2.56*00
$GPGSV,2,1,08,08,03,314,30,10,46,313,43,15,35,057,42,20,74,341,34*7F
$GPGSV,2,2,08,21,53,204,41,24,58,079,32,27,,,36,32,28,257,32*49
$GPGLL,3732.60226,N,07619.93778,W,203545.00,A,A*70
$GPGST,203545.00,13,,,,1.9,2.1,8.1*52
$GPRMC,203546.00,A,3732.60228,N,07619.93789,W,0.088,77.90,201018,10.96,W,A*30
$GPVTG,77.90,T,88.87,M,0.088,N,0.162,K,A*20
$GPGGA,203546.00,3732.60228,N,07619.93789,W,1,06,1.48,-9.7,M,-35.6,M,,*43
$GPGSA,A,3,21,32,10,24,20,15,,,,,,,2.95,1.48,2.56*03
$GPGSV,2,1,08,08,03,314,33,10,46,313,43,15,35,057,44,20,74,341,36*78
$GPGSV,2,2,08,21,53,204,42,24,58,079,27,27,,,35,32,28,257,36*49
$GPGLL,3732.60228,N,07619.93789,W,203546.00,A,A*73
$GPGST,203546.00,15,,,,1.8,2.0,7.9*50
!AIVDM,1,1,,B,H5Mw3C05A<40000000000000000,2*5C
$GPRMC,203547.00,A,3732.60229,N,07619.93814,W,0.004,77.90,201018,10.96,W,A*3F
$GPVTG,77.90,T,88.87,M,0.004,N,0.007,K,A*26
$GPGGA,203547.00,3732.60229,N,07619.93814,W,1,06,1.48,-8.2,M,-35.6,M,,*4C
$GPGSA,A,3,21,32,10,24,20,15,,,,,,,2.95,1.48,2.56*03
$GPGSV,2,1,08,08,03,314,34,10,46,313,43,15,35,057,44,20,74,341,36*7F
$GPGSV,2,2,08,21,53,204,43,24,58,079,27,27,,,35,32,28,257,36*48
$GPGLL,3732.60229,N,07619.93814,W,203547.00,A,A*78
$GPGST,203547.00,16,,,,1.8,1.9,7.6*57
$GPRMC,203548.00,A,3732.60231,N,07619.93842,W,0.025,77.90,201018,10.96,W,A*39
$GPVTG,77.90,T,88.87,M,0.025,N,0.046,K,A*20
$GPGGA,203548.00,3732.60231,N,07619.93842,W,1,06,1.48,-6.5,M,-35.6,M,,*40
$GPGSA,A,3,21,32,10,24,20,15,,,,,,,2.95,1.48,2.56*03
$GPGSV,2,1,08,08,03,314,34,10,46,313,42,15,35,057,44,20,74,341,37*7F
$GPGSV,2,2,08,21,53,204,43,24,58,079,28,27,,,35,32,28,257,36*47
$GPGLL,3732.60231,N,07619.93842,W,203548.00,A,A*7D
$GPGST,203548.00,14,,,,1.7,1.8,7.4*56
!AIVDM,1,1,,B,H39WO5PpE8EE>0TT00000000000,2*2B
$GPRMC,203549.00,A,3732.60232,N,07619.93866,W,0.027,77.90,201018,10.96,W,A*3F
$GPVTG,77.90,T,88.87,M,0.027,N,0.050,K,A*25
$GPGGA,203549.00,3732.60232,N,07619.93866,W,1,06,1.48,-5.0,M,-35.6,M,,*42
$GPGSA,A,3,21,32,10,24,20,15,,,,,,,2.95,1.48,2.56*03
$GPGSV,2,1,08,08,03,314,34,10,46,313,43,15,35,057,44,20,74,341,37*7E
$GPGSV,2,2,08,21,53,204,43,24,58,079,27,27,,,36,32,28,257,36*4B
$GPGLL,3732.60232,N,07619.93866,W,203549.00,A,A*79
$GPGST,203549.00,15,,,,1.7,1.7,7.1*5C
$GPRMC,203550.00,A,3732.60233,N,07619.93885,W,0.019,77.90,201018,10.96,W,A*36
$GPVTG,77.90,T,88.87,M,0.019,N,0.035,K,A*2B
$GPGGA,203550.00,3732.60233,N,07619.93885,W,1,06,1.48,-3.5,M,-35.6,M,,*45
$GPGSA,A,3,21,32,10,24,20,15,,,,,,,2.95,1.48,2.56*03
$GPGSV,2,1,08,08,03,314,35,10,46,313,42,15,35,057,44,20,74,341,37*7E
$GPGSV,2,2,08,21,53,204,43,24,58,079,24,27,,,36,32,28,257,36*48
$GPGLL,3732.60233,N,07619.93885,W,203550.00,A,A*7D
$GPGST,203550.00,20,,,,1.7,1.7,6.9*5B
!AIVDM,1,1,,B,H39WO5TT@<CD9=?49>=j00000000,0*6E
$GPRMC,203551.00,A,3732.60238,N,07619.93897,W,0.018,77.90,201018,10.96,W,A*3E
$GPVTG,77.90,T,88.87,M,0.018,N,0.034,K,A*2B
$GPGGA,203551.00,3732.60238,N,07619.93897,W,1,06,1.48,-1.8,M,-35.6,M,,*43
$GPGSA,A,3,21,32,10,24,20,15,,,,,,,2.95,1.48,2.56*03
$GPGSV,2,1,08,08,03,314,35,10,46,313,42,15,35,057,44,20,74,341,37*7E
$GPGSV,2,2,08,21,53,204,43,24,58,079,21,27,,,37,32,28,257,37*4D
$GPGLL,3732.60238,N,07619.93897,W,203551.00,A,A*74
$GPGST,203551.00,31,,,,1.6,1.6,6.7*54
$GPRMC,203552.00,A,3732.60247,N,07619.93900,W,0.002,77.90,201018,10.96,W,A*31
$GPVTG,77.90,T,88.87,M,0.002,N,0.004,K,A*23
$GPGGA,203552.00,3732.60247,N,07619.93900,W,1,07,1.45,0.0,M,-35.6,M,,*6F
$GPGSA,A,3,21,32,10,27,24,20,15,,,,,,2.38,1.45,1.88*0C
$GPGSV,2,1,08,08,03,314,36,10,46,313,42,15,35,057,44,20,74,341,37*7D
$GPGSV,2,2,08,21,53,204,43,24,58,079,18,27,09,285,37,32,28,257,37*71
$GPGLL,3732.60247,N,07619.93900,W,203552.00,A,A*70
$GPGST,203552.00,32,,,,1.6,1.6,6.2*51
!AIVDM,1,1,,B,15N9ag0P00JRUa4EO8PrW?wT2@M9,0*75
!AIVDM,1,1,,B,H5NwD74U653hhhiG4;jopp000000,0*0F
$GPRMC,203553.00,A,3732.60253,N,07619.93902,W,0.052,77.90,201018,10.96,W,A*32
$GPVTG,77.90,T,88.87,M,0.052,N,0.096,K,A*2D
$GPGGA,203553.00,3732.60253,N,07619.93902,W,1,06,1.51,1.1,M,-35.6,M,,*6D
$GPGSA,A,3,21,32,10,27,20,15,,,,,,,2.41,1.51,1.88*01
$GPGSV,2,1,08,08,03,314,36,10,46,313,43,15,35,057,44,20,74,341,37*7C
$GPGSV,2,2,08,21,53,204,44,24,58,079,,27,09,285,36,32,28,257,37*7E
$GPGLL,3732.60253,N,07619.93902,W,203553.00,A,A*76
$GPGST,203553.00,7.4,,,,1.6,1.5,5.8*76
$GPRMC,203554.00,A,3732.60260,N,07619.93905,W,0.027,77.90,201018,10.96,W,A*30
$GPVTG,77.90,T,88.87,M,0.027,N,0.050,K,A*25
$GPGGA,203554.00,3732.60260,N,07619.93905,W,1,06,1.51,2.0,M,-35.6,M,,*6F
$GPGSA,A,3,21,32,10,27,20,15,,,,,,,2.41,1.51,1.88*01
$GPGSV,2,1,08,08,03,314,36,10,46,313,42,15,35,057,44,20,74,341,36*7C
$GPGSV,2,2,08,21,53,204,44,24,58,079,,27,09,285,34,32,28,257,37*7C
$GPGLL,3732.60260,N,07619.93905,W,203554.00,A,A*76
$GPGST,203554.00,8.9,,,,1.6,1.5,5.6*7D
$GPRMC,203555.00,A,3732.60267,N,07619.93907,W,0.026,77.90,201018,10.96,W,A*35
$GPVTG,77.90,T,88.87,M,0.026,N,0.049,K,A*2C
$GPGGA,203555.00,3732.60267,N,07619.93907,W,1,06,1.51,2.9,M,-35.6,M,,*62
$GPGSA,A,3,21,32,10,27,20,15,,,,,,,2.41,1.51,1.88*01
$GPGSV,2,1,08,08,03,314,36,10,46,313,42,15,35,057,44,20,74,341,36*7C
$GPGSV,2,2,08,21,53,204,43,24,58,079,,27,09,285,34,32,28,257,37*7B
$GPGLL,3732.60267,N,07619.93907,W,203555.00,A,A*72
$GPGST,203555.00,8.9,,,,1.6,1.4,5.5*7E
$GPRMC,203556.00,A,3732.60276,N,07619.93913,W,0.029,77.90,201018,10.96,W,A*3C
$GPVTG,77.90,T,88.87,M,0.029,N,0.054,K,A*2F
$GPGGA,203556.00,3732.60276,N,07619.93913,W,1,07,1.51,3.8,M,-35.6,M,,*65
$GPGSA,A,3,21,32,10,27,24,20,15,,,,,,2.41,1.51,1.88*07
$GPGSV,2,1,08,08,03,314,36,10,46,313,42,15,35,057,44,20,74,341,35*7F
$GPGSV,2,2,08,21,53,204,43,24,58,079,27,27,09,285,33,32,28,257,37*79
$GPGLL,3732.60276,N,07619.93913,W,203556.00,A,A*74
$GPGST,203556.00,10,,,,1.6,1.4,5.4*52
$GPRMC,203557.00,A,3732.60284,N,07619.93921,W,0.024,77.90,201018,10.96,W,A*3C
$GPVTG,77.90,T,88.87,M,0.024,N,0.045,K,A*22
$GPGGA,203557.00,3732.60284,N,07619.93921,W,1,07,1.45,4.4,M,-35.6,M,,*66
$GPGSA,A,3,21,32,10,27,24,20,15,,,,,,2.37,1.45,1.88*03
$GPGSV,2,1,08,08,03,314,37,10,46,313,42,15,35,057,44,20,74,341,35*7E
$GPGSV,2,2,08,21,53,204,43,24,58,079,28,27,09,285,34,32,28,257,36*70
$GPGLL,3732.60284,N,07619.93921,W,203557.00,A,A*79
$GPGST,203557.00,16,,,,1.6,1.4,5.3*52
!AIVDM,1,1,,B,H5Mw3C4TCBD6pWRG42qqpo107220,0*2C
$GPRMC,203558.00,A,3732.60289,N,07619.93928,W,0.040,77.90,201018,10.96,W,A*35
$GPVTG,77.90,T,88.87,M,0.040,N,0.074,K,A*22
$GPGGA,203558.00,3732.60289,N,07619.93928,W,1,07,1.45,5.1,M,-35.6,M,,*69
$GPGSA,A,3,21,32,10,27,24,20,15,,,,,,2.37,1.45,1.88*03
$GPGSV,2,1,08,08,03,314,37,10,46,313,41,15,35,057,44,20,74,341,35*7D
$GPGSV,2,2,08,21,53,204,43,24,58,079,27,27,09,285,35,32,28,257,36*7E
$GPGLL,3732.60289,N,07619.93928,W,203558.00,A,A*72
$GPGST,203558.00,16,,,,1.5,1.4,5.1*5C
$AITXT,01,01,03,Ending DSC monitor period on channel 1*12
$GPRMC,203559.00,A,3732.60292,N,07619.93936,W,0.044,77.90,201018,10.96,W,A*35
$GPVTG,77.90,T,88.87,M,0.044,N,0.082,K,A*2F
$GPGGA,203559.00,3732.60292,N,07619.93936,W,1,07,1.45,5.9,M,-35.6,M,,*65
$GPGSA,A,3,21,32,10,27,24,20,15,,,,,,2.37,1.45,1.88*03
$GPGSV,2,1,08,08,03,314,37,10,46,313,41,15,35,057,44,20,74,341,35*7D
$GPGSV,2,2,08,21,53,204,42,24,58,079,27,27,09,285,35,32,28,257,37*7E
$GPGLL,3732.60292,N,07619.93936,W,203559.00,A,A*76
$GPGST,203559.00,15,,,,1.5,1.3,5.0*58
$GPRMC,203600.00,A,3732.60290,N,07619.93945,W,0.021,77.90,201018,10.96,W,A*3F
$GPVTG,77.90,T,88.87,M,0.021,N,0.038,K,A*2D
$GPGGA,203600.00,3732.60290,N,07619.93945,W,1,07,1.45,6.6,M,-35.6,M,,*60
$GPGSA,A,3,21,32,10,27,24,20,15,,,,,,2.37,1.45,1.88*03
$GPGSV,2,1,08,08,03,314,37,10,46,313,41,15,35,057,44,20,74,341,35*7D
$GPGSV,2,2,08,21,53,204,42,24,58,079,27,27,09,285,34,32,28,257,36*7E
$GPGLL,3732.60290,N,07619.93945,W,203600.00,A,A*7F
$GPGST,203600.00,16,,,,1.5,1.3,5.0*54
$GPRMC,203601.00,A,3732.60291,N,07619.93955,W,0.022,77.90,201018,10.96,W,A*3D
$GPVTG,77.90,T,88.87,M,0.022,N,0.041,K,A*20
$GPGGA,203601.00,3732.60291,N,07619.93955,W,1,07,1.45,7.3,M,-35.6,M,,*65
$GPGSA,A,3,21,32,10,27,24,20,15,,,,,,2.37,1.45,1.88*03
$GPGSV,3,1,09,08,03,314,37,10,46,313,42,15,35,057,45,20,74,341,35*7F
$GPGSV,3,2,09,21,53,204,43,22,,,25,24,58,079,28,27,09,285,34*49
$GPGSV,3,3,09,32,28,257,36*4E
$GPGLL,3732.60291,N,07619.93955,W,203601.00,A,A*7E
$GPGST,203601.00,15,,,,1.5,1.3,4.9*5E
$GPRMC,203602.00,A,3732.60292,N,07619.93966,W,0.039,77.90,201018,10.96,W,A*37
$GPVTG,77.90,T,88.87,M,0.039,N,0.072,K,A*2A
$GPGGA,203602.00,3732.60292,N,07619.93966,W,1,07,1.45,8.0,M,-35.6,M,,*69
$GPGSA,A,3,21,32,10,27,24,20,15,,,,,,2.37,1.45,1.88*03
$GPGSV,2,1,08,08,03,314,38,10,46,313,42,15,35,057,45,20,74,341,35*70
$GPGSV,2,2,08,21,53,204,43,24,58,079,29,27,09,285,34,32,28,257,37*70
$GPGLL,3732.60292,N,07619.93966,W,203602.00,A,A*7E
$GPGST,203602.00,14,,,,1.5,1.3,4.8*5D
!AIVDM,1,1,,A,35N9ag0P00JRUa4EO8Pba?v024ak,0*3D
$GPRMC,203603.00,A,3732.60292,N,07619.93979,W,0.023,77.90,201018,10.96,W,A*33
$GPVTG,77.90,T,88.87,M,0.023,N,0.043,K,A*23
$GPGGA,203603.00,3732.60292,N,07619.93979,W,1,07,1.45,8.6,M,-35.6,M,,*60
$GPGSA,A,3,21,32,10,27,24,20,15,,,,,,2.37,1.45,1.88*03
$GPGSV,2,1,08,08,03,314,38,10,46,313,42,15,35,057,45,20,74,341,35*70
$GPGSV,2,2,08,21,53,204,42,24,58,079,29,27,09,285,33,32,28,257,36*77
$GPGLL,3732.60292,N,07619.93979,W,203603.00,A,A*71
$GPGST,203603.00,14,,,,1.5,1.3,4.8*5C
$GPRMC,203604.00,A,3732.60290,N,07619.93989,W,0.023,77.90,201018,10.96,W,A*39
$GPVTG,77.90,T,88.87,M,0.023,N,0.043,K,A*23
$GPGGA,203604.00,3732.60290,N,07619.93989,W,1,07,1.45,9.1,M,-35.6,M,,*6C
$GPGSA,A,3,21,32,10,27,24,20,15,,,,,,2.37,1.45,1.88*03
$GPGSV,2,1,08,08,03,314,38,10,46,313,42,15,35,057,45,20,74,341,35*70
$GPGSV,2,2,08,21,53,204,42,24,58,079,29,27,09,285,33,32,28,257,36*77
$GPGLL,3732.60290,N,07619.93989,W,203604.00,A,A*7B
$GPGST,203604.00,14,,,,1.5,1.3,4.7*54
!AIVDM,1,1,,A,B52Q@Hh0A>`bU95GLJ9t?wPUoP06,0*3E
$GPRMC,203605.00,A,3732.60287,N,07619.93998,W,0.033,77.90,201018,10.96,W,A*3F
$GPVTG,77.90,T,88.87,M,0.033,N,0.061,K,A*22
$GPGGA,203605.00,3732.60287,N,07619.93998,W,1,07,1.45,9.6,M,-35.6,M,,*6C
$GPGSA,A,3,21,32,10,27,24,20,15,,,,,,2.37,1.45,1.88*03
$GPGSV,2,1,08,08,03,314,38,10,46,313,42,15,35,057,45,20,74,341,34*71
$GPGSV,2,2,08,21,53,204,42,24,58,079,28,27,09,285,34,32,28,257,36*71
$GPGLL,3732.60287,N,07619.93998,W,203605.00,A,A*7C
$GPGST,203605.00,15,,,,1.5,1.2,4.7*55
$GPRMC,203606.00,A,3732.60286,N,07619.94002,W,0.040,77.90,201018,10.96,W,A*34
$GPVTG,77.90,T,88.87,M,0.040,N,0.073,K,A*25
$GPGGA,203606.00,3732.60286,N,07619.94002,W,1,07,1.45,10.1,M,-35.6,M,,*5C
$GPGSA,A,3,21,32,10,27,24,20,15,,,,,,2.37,1.45,1.88*03
$GPGSV,2,1,08,08,03,314,38,10,46,313,42,15,35,057,45,20,74,341,35*70
$GPGSV,2,2,08,21,53,204,42,24,58,079,28,27,09,285,34,32,28,257,37*70
$GPGLL,3732.60286,N,07619.94002,W,203606.00,A,A*73
$GPGST,203606.00,15,,,,1.5,1.2,4.6*57
$GPRMC,203607.00,A,3732.60284,N,07619.94007,W,0.033,77.90,201018,10.96,W,A*36
$GPVTG,77.90,T,88.87,M,0.033,N,0.062,K,A*21
$GPGGA,203607.00,3732.60284,N,07619.94007,W,1,07,1.45,10.6,M,-35.6,M,,*5D
$GPGSA,A,3,21,32,10,27,24,20,15,,,,,,2.37,1.45,1.88*03
$GPGSV,2,1,08,08,03,314,38,10,46,313,42,15,35,057,45,20,74,341,35*70
$GPGSV,2,2,08,21,53,204,42,24,58,079,28,27,09,285,34,32,28,257,37*70
$GPGLL,3732.60284,N,07619.94007,W,203607.00,A,A*75
$GPGST,203607.00,15,,,,1.5,1.2,4.6*56
$GPRMC,203608.00,A,3732.60280,N,07619.94011,W,0.028,77.90,201018,10.96,W,A*30
$GPVTG,77.90,T,88.87,M,0.028,N,0.052,K,A*28
$GPGGA,203608.00,3732.60280,N,07619.94011,W,1,07,1.45,11.2,M,-35.6,M,,*54
$GPGSA,A,3,21,32,10,27,24,20,15,,,,,,2.37,1.45,1.88*03
$GPGSV,2,1,08,08,03,314,37,10,46,313,41,15,35,057,44,20,74,341,34*7C
$GPGSV,2,2,08,21,53,204,41,24,58,079,28,27,09,285,33,32,28,257,37*74
$GPGLL,3732.60280,N,07619.94011,W,203608.00,A,A*79
$GPGST,203608.00,15,,,,1.5,1.2,4.6*59
$GPRMC,203609.00,A,3732.60278,N,07619.94015,W,0.023,77.90,201018,10.96,W,A*39
$GPVTG,77.90,T,88.87,M,0.023,N,0.043,K,A*23
$GPGGA,203609.00,3732.60278,N,07619.94015,W,1,07,1.45,11.7,M,-35.6,M,,*53
$GPGSA,A,3,21,32,10,27,24,20,15,,,,,,2.37,1.45,1.88*03
$GPGSV,2,1,08,08,03,314,37,10,46,313,41,15,35,057,45,20,74,341,34*7D
$GPGSV,2,2,08,21,53,204,41,24,58,079,29,27,09,285,33,32,28,257,37*75
$GPGLL,3732.60278,N,07619.94015,W,203609.00,A,A*7B
$GPGST,203609.00,15,,,,1.5,1.2,4.5*5B
$GPRMC,203610.00,A,3732.60275,N,07619.94014,W,0.035,77.90,201018,10.96,W,A*3A
$GPVTG,77.90,T,88.87,M,0.035,N,0.065,K,A*20
$GPGGA,203610.00,3732.60275,N,07619.94014,W,1,07,1.45,12.4,M,-35.6,M,,*57
$GPGSA,A,3,21,32,10,27,24,20,15,,,,,,2.37,1.45,1.88*03
$GPGSV,2,1,08,08,03,314,37,10,46,313,41,15,35,057,45,20,74,341,34*7D
$GPGSV,2,2,08,21,53,204,40,24,58,079,30,27,09,285,32,32,28,257,38*72
$GPGLL,3732.60275,N,07619.94014,W,203610.00,A,A*7F
$GPGST,203610.00,14,,,,1.5,1.2,4.5*52
!AIVDO,1,1,,A,B52ap3@006`a@<5Gf4hhgwU5CP06,0*0D
$GPRMC,203611.00,A,3732.60268,N,07619.94015,W,0.035,77.90,201018,10.96,W,A*36
$GPVTG,77.90,T,88.87,M,0.035,N,0.064,K,A*21
$GPGGA,203611.00,3732.60268,N,07619.94015,W,1,07,1.45,13.0,M,-35.6,M,,*5E
$GPGSA,A,3,21,32,10,27,24,20,15,,,,,,2.37,1.45,1.88*03
$GPGSV,2,1,08,08,03,314,37,10,46,313,40,15,35,057,45,20,74,341,34*7C
$GPGSV,2,2,08,21,53,204,40,24,58,079,31,27,09,285,32,32,28,257,37*7C
$GPGLL,3732.60268,N,07619.94015,W,203611.00,A,A*73
$GPGST,203611.00,14,,,,1.5,1.2,4.5*53
!AIVDM,1,1,,B,15N9ag0P00JRUa6EO8PJbOvB20SW,0*1D
$GPRMC,203612.00,A,3732.60266,N,07619.94017,W,0.038,77.90,201018,10.96,W,A*34
$GPVTG,77.90,T,88.87,M,0.038,N,0.070,K,A*29
$GPGGA,203612.00,3732.60266,N,07619.94017,W,1,07,1.45,13.3,M,-35.6,M,,*52
$GPGSA,A,3,21,32,10,27,24,20,15,,,,,,2.37,1.45,1.88*03
$GPGSV,2,1,08,08,03,314,35,10,46,313,39,15,35,057,42,20,74,341,33*70
$GPGSV,2,2,08,21,53,204,38,24,58,079,31,27,09,285,32,32,28,257,35*71
$GPGLL,3732.60266,N,07619.94017,W,203612.00,A,A*7C
$GPGST,203612.00,14,,,,1.6,1.2,4.5*53
$GPRMC,203613.00,A,3732.60264,N,07619.94020,W,0.049,77.90,201018,10.96,W,A*35
$GPVTG,77.90,T,88.87,M,0.049,N,0.091,K,A*20
$GPGGA,203613.00,3732.60264,N,07619.94020,W,1,07,1.45,13.4,M,-35.6,M,,*52
$GPGSA,A,3,21,32,10,27,24,20,15,,,,,,2.37,1.45,1.88*03
$GPGSV,2,1,08,08,03,314,34,10,46,313,37,15,35,057,41,20,74,341,31*7E
$GPGSV,2,2,08,21,53,204,37,24,58,079,31,27,09,285,31,32,28,257,32*7A
$GPGLL,3732.60264,N,07619.94020,W,203613.00,A,A*7B
$GPGST,203613.00,17,,,,1.6,1.2,4.5*51
$GPRMC,203614.00,A,3732.60264,N,07619.94026,W,0.040,77.90,201018,10.96,W,A*3D
$GPVTG,77.90,T,88.87,M,0.040,N,0.073,K,A*25
$GPGGA,203614.00,3732.60264,N,07619.94026,W,1,07,1.45,13.5,M,-35.6,M,,*52
$GPGSA,A,3,21,32,10,27,24,20,15,,,,,,2.37,1.45,1.88*03
$GPGSV,2,1,08,08,03,314,36,10,46,313,39,15,35,057,43,20,74,341,31*70
$GPGSV,2,2,08,21,53,204,37,24,58,079,31,27,09,285,32,32,28,257,33*78
$GPGLL,3732.60264,N,07619.94026,W,203614.00,A,A*7A
$GPGST,203614.00,16,,,,1.7,1.2,4.5*56
!AIVDM,1,1,,A,15NwH;0000JRb:REOFjaVJvd2@<P,0*2D
!AIVDM,1,1,,A,B5NTbf000>`aK1UGiHbCwwV5WP06,0*4A
$GPRMC,203615.00,A,3732.60257,N,07619.94029,W,0.016,77.90,201018,10.96,W,A*30
$GPVTG,77.90,T,88.87,M,0.016,N,0.030,K,A*21
$GPGGA,203615.00,3732.60257,N,07619.94029,W,1,07,1.45,13.7,M,-35.6,M,,*5E
$GPGSA,A,3,21,32,10,27,24,20,15,,,,,,2.37,1.45,1.88*03
$GPGSV,2,1,08,08,03,314,36,10,46,313,40,15,35,057,43,20,74,341,32*7D
$GPGSV,2,2,08,21,53,204,38,24,58,079,30,27,09,285,33,32,28,257,34*70
$GPGLL,3732.60257,N,07619.94029,W,203615.00,A,A*74
$GPGST,203615.00,15,,,,1.7,1.2,4.5*54
$GPRMC,203616.00,A,3732.60249,N,07619.94032,W,0.029,77.90,201018,10.96,W,A*3A
$GPVTG,77.90,T,88.87,M,0.029,N,0.054,K,A*2F
$GPGGA,203616.00,3732.60249,N,07619.94032,W,1,07,1.45,13.8,M,-35.6,M,,*57
$GPGSA,A,3,21,32,10,27,24,20,15,,,,,,2.37,1.45,1.88*03
$GPGSV,2,1,08,08,03,314,37,10,46,313,41,15,35,057,44,20,74,341,32*7A
$GPGSV,2,2,08,21,53,204,38,24,58,079,31,27,09,285,33,32,28,257,34*71
$GPGLL,3732.60249,N,07619.94032,W,203616.00,A,A*72
$GPGST,203616.00,14,,,,1.7,1.2,4.5*56
$GPRMC,203617.00,A,3732.60239,N,07619.94035,W,0.027,77.90,201018,10.96,W,A*35
$GPVTG,77.90,T,88.87,M,0.027,N,0.050,K,A*25
$GPGGA,203617.00,3732.60239,N,07619.94035,W,1,07,1.45,13.8,M,-35.6,M,,*56
$GPGSA,A,3,21,32,10,27,24,20,15,,,,,,2.37,1.45,1.88*03
$GPGSV,2,1,08,08,03,314,36,10,46,313,41,15,35,057,44,20,74,341,32*7B
$GPGSV,2,2,08,21,53,204,38,24,58,079,32,27,09,285,34,32,28,257,33*72
$GPGLL,3732.60239,N,07619.94035,W,203617.00,A,A*73
$GPGST,203617.00,14,,,,1.7,1.2,4.5*57
$GPRMC,203618.00,A,3732.60230,N,07619.94037,W,0.020,77.90,201018,10.96,W,A*36
$GPVTG,77.90,T,88.87,M,0.020,N,0.037,K,A*23
$GPGGA,203618.00,3732.60230,N,07619.94037,W,1,07,1.45,13.8,M,-35.6,M,,*52
$GPGSA,A,3,21,32,10,27,24,20,15,,,,,,2.37,1.45,1.88*03
$GPGSV,2,1,08,08,03,314,34,10,46,313,39,15,35,057,42,20,74,341,31*73
$GPGSV,2,2,08,21,53,204,37,24,58,079,31,27,09,285,33,32,28,257,31*7B
$GPGLL,3732.60230,N,07619.94037,W,203618.00,A,A*77
$GPGST,203618.00,16,,,,1.7,1.2,4.5*5A
$GPRMC,203619.00,A,3732.60216,N,07619.94039,W,0.009,77.90,201018,10.96,W,A*36
$GPVTG,77.90,T,88.87,M,0.009,N,0.016,K,A*2B
$GPGGA,203619.00,3732.60216,N,07619.94039,W,1,07,1.45,13.7,M,-35.6,M,,*56
$GPGSA,A,3,21,32,10,27,24,20,15,,,,,,2.37,1.45,1.88*03
$GPGSV,2,1,08,08,03,314,37,10,46,313,41,15,35,057,44,20,74,341,34*7C
$GPGSV,2,2,08,21,53,204,38,24,58,079,30,27,09,285,35,32,28,257,33*71
$GPGLL,3732.60216,N,07619.94039,W,203619.00,A,A*7C
$GPGST,203619.00,14,,,,1.8,1.2,4.5*56
$GPRMC,203620.00,A,3732.60200,N,07619.94041,W,0.016,77.90,201018,10.96,W,A*3A
$GPVTG,77.90,T,88.87,M,0.016,N,0.030,K,A*21
$GPGGA,203620.00,3732.60200,N,07619.94041,W,1,07,1.45,13.6,M,-35.6,M,,*55
$GPGSA,A,3,21,32,10,27,24,20,15,,,,,,2.37,1.45,1.88*03
$GPGSV,2,1,08,08,03,313,37,10,46,313,42,15,35,057,44,20,74,341,34*78
$GPGSV,2,2,08,21,53,204,38,24,58,079,31,27,09,285,35,32,28,257,32*71
$GPGLL,3732.60200,N,07619.94041,W,203620.00,A,A*7E
$GPGST,203620.00,14,,,,1.8,1.2,4.5*5C
$GPRMC,203621.00,A,3732.60185,N,07619.94045,W,0.014,77.90,201018,10.96,W,A*33
$GPVTG,77.90,T,88.87,M,0.014,N,0.026,K,A*24
$GPGGA,203621.00,3732.60185,N,07619.94045,W,1,07,1.45,13.5,M,-35.6,M,,*5D
$GPGSA,A,3,21,32,10,27,24,20,15,,,,,,2.37,1.45,1.88*03
$GPGSV,2,1,08,08,03,313,36,10,46,313,41,15,35,057,44,20,74,341,34*7A
$GPGSV,2,2,08,21,53,204,38,24,58,079,31,27,09,285,36,32,28,257,31*71
$GPGLL,3732.60185,N,07619.94045,W,203621.00,A,A*75
$GPGST,203621.00,14,,,,1.8,1.2,4.4*5C
$GPRMC,203622.00,A,3732.60173,N,07619.94047,W,0.004,77.90,201018,10.96,W,A*3A
$GPVTG,77.90,T,88.87,M,0.004,N,0.008,K,A*29
$GPGGA,203622.00,3732.60173,N,07619.94047,W,1,07,1.45,13.3,M,-35.6,M,,*53
$GPGSA,A,3,21,32,10,27,24,20,15,,,,,,2.37,1.45,1.88*03
$GPGSV,2,1,08,08,03,313,35,10,47,314,42,15,35,057,44,20,74,341,34*7C
$GPGSV,2,2,08,21,53,204,37,24,58,079,29,27,09,285,36,32,28,257,31*77
$GPGLL,3732.60173,N,07619.94047,W,203622.00,A,A*7D
$GPGST,203622.00,15,,,,1.8,1.2,4.4*5E
!AIVDM,1,1,,A,15N9ag0P00JRUa6EO8Obd?v`20SH,0*62
!AIVDO,1,1,,B,H52ap3@<4iU1<t0000000000000,2*75
!AIVDO,1,1,,B,H52ap3DTFC@83Lm00000000h6220,0*5B
$GPRMC,203623.00,A,3732.60155,N,07619.94047,W,0.009,77.90,201018,10.96,W,A*32
$GPVTG,77.90,T,88.87,M,0.009,N,0.016,K,A*2B
$GPGGA,203623.00,3732.60155,N,07619.94047,W,1,07,1.45,13.2,M,-35.6,M,,*57
$GPGSA,A,3,21,32,10,27,24,20,15,,,,,,2.37,1.45,1.88*03
$GPGSV,2,1,08,08,03,313,35,10,47,314,42,15,35,057,44,20,74,341,34*7C
$GPGSV,2,2,08,21,53,204,38,24,58,079,29,27,09,285,36,32,28,257,32*7B
$GPGLL,3732.60155,N,07619.94047,W,203623.00,A,A*78
$GPGST,203623.00,15,,,,1.8,1.2,4.3*58
$GPRMC,203624.00,A,3732.60136,N,07619.94048,W,0.011,77.90,201018,10.96,W,A*36
$GPVTG,77.90,T,88.87,M,0.011,N,0.021,K,A*26
$GPGGA,203624.00,3732.60136,N,07619.94048,W,1,07,1.45,13.0,M,-35.6,M,,*58
$GPGSA,A,3,21,32,10,27,24,20,15,,,,,,2.37,1.45,1.88*03
$GPGSV,2,1,08,08,03,313,32,10,47,314,42,15,35,057,44,20,74,341,34*7B
$GPGSV,2,2,08,21,53,204,38,24,58,079,30,27,09,285,37,32,28,257,32*72
$GPGLL,3732.60136,N,07619.94048,W,203624.00,A,A*75
$GPGST,203624.00,14,,,,1.8,1.2,4.3*5E
!AIVDM,1,1,,B,15NwH;0000JRb:lEOFg9bbvv2@BA,0*24
$GPRMC,203625.00,A,3732.60119,N,07619.94049,W,0.023,77.90,201018,10.96,W,A*3A
$GPVTG,77.90,T,88.87,M,0.023,N,0.043,K,A*23
$GPGGA,203625.00,3732.60119,N,07619.94049,W,1,07,1.45,12.8,M,-35.6,M,,*5C
$GPGSA,A,3,21,32,10,27,24,20,15,,,,,,2.37,1.45,1.87*0C
$GPGSV,2,1,08,08,03,313,33,10,47,314,43,15,35,057,44,20,74,341,34*7B
$GPGSV,2,2,08,21,53,204,38,24,58,079,34,27,09,285,37,32,28,257,32*76
$GPGLL,3732.60119,N,07619.94049,W,203625.00,A,A*78
$GPGST,203625.00,12,,,,1.8,1.2,4.2*58
$GPRMC,203626.00,A,3732.60096,N,07619.94047,W,0.010,77.90,201018,10.96,W,A*31
$GPVTG,77.90,T,88.87,M,0.010,N,0.018,K,A*2D
$GPGGA,203626.00,3732.60096,N,07619.94047,W,1,07,1.45,12.6,M,-35.6,M,,*59
$GPGSA,A,3,21,32,10,27,24,20,15,,,,,,2.37,1.45,1.87*0C
$GPGSV,2,1,08,08,03,313,34,10,47,314,44,15,35,057,46,20,74,341,35*78
$GPGSV,2,2,08,21,53,204,39,24,58,079,33,27,09,285,38,32,28,257,33*7E
$GPGLL,3732.60096,N,07619.94047,W,203626.00,A,A*73
$GPGST,203626.00,12,,,,1.8,1.2,4.1*58
$GPRMC,203627.00,A,3732.60079,N,07619.94046,W,0.029,77.90,201018,10.96,W,A*3A
$GPVTG,77.90,T,88.87,M,0.029,N,0.053,K,A*28
$GPGGA,203627.00,3732.60079,N,07619.94046,W,1,07,1.45,12.3,M,-35.6,M,,*5D
$GPGSA,A,3,21,32,10,27,24,20,15,,,,,,2.37,1.45,1.87*0C
$GPGSV,2,1,08,08,03,313,34,10,47,314,43,15,35,057,46,20,74,341,35*7F
$GPGSV,2,2,08,21,53,204,38,24,58,079,33,27,09,285,37,32,28,257,33*70
$GPGLL,3732.60079,N,07619.94046,W,203627.00,A,A*72
$GPGST,203627.00,12,,,,1.8,1.2,4.1*59
$GPRMC,203628.00,A,3732.60063,N,07619.94045,W,0.018,77.90,201018,10.96,W,A*3F
$GPVTG,77.90,T,88.87,M,0.018,N,0.034,K,A*2B
$GPGGA,203628.00,3732.60063,N,07619.94045,W,1,07,1.45,12.1,M,-35.6,M,,*58
$GPGSA,A,3,21,32,10,27,24,20,15,,,,,,2.37,1.45,1.87*0C
$GPGSV,2,1,08,08,03,313,34,10,47,314,43,15,35,057,45,20,74,341,35*7C
$GPGSV,2,2,08,21,53,204,38,24,58,079,33,27,09,285,38,32,28,257,34*78
$GPGLL,3732.60063,N,07619.94045,W,203628.00,A,A*75
$GPGST,203628.00,11,,,,1.8,1.2,4.0*54
$GPRMC,203629.00,A,3732.60049,N,07619.94044,W,0.018,77.90,201018,10.96,W,A*37
$AITXT,01,01,02,Starting DSC monitor period on channel 2*1F
$GPVTG,77.90,T,88.87,M,0.018,N,0.034,K,A*2B
$GPGGA,203629.00,3732.60049,N,07619.94044,W,1,07,1.45,11.9,M,-35.6,M,,*5B
$GPGSA,A,3,21,32,10,27,24,20,15,,,,,,2.37,1.45,1.87*0C
$GPGSV,2,1,08,08,03,313,34,10,47,314,43,15,35,057,45,20,74,341,34*7D
$GPGSV,2,2,08,21,53,204,38,24,58,079,32,27,09,285,37,32,28,257,34*76
$GPGLL,3732.60049,N,07619.94044,W,203629.00,A,A*7D
$GPGST,203629.00,12,,,,1.9,1.2,4.0*57
$AITXT,01,01,03,Ending DSC monitor period on channel 2*11
!AIVDM,1,1,,A,15Nvlj0P00JRbUvEOOjH;gvn26R@,0*10
$AITXT,01,01,02,Starting DSC monitor period on channel 1*1C
$GPRMC,203630.00,A,3732.60035,N,07619.94042,W,0.008,77.90,201018,10.96,W,A*33
$GPVTG,77.90,T,88.87,M,0.008,N,0.015,K,A*29
$GPGGA,203630.00,3732.60035,N,07619.94042,W,1,07,1.45,11.7,M,-35.6,M,,*50
$GPGSA,A,3,21,32,10,27,24,20,15,,,,,,2.37,1.45,1.87*0C
$GPGSV,2,1,08,08,03,313,34,10,47,314,43,15,35,057,45,20,74,341,33*7A
$GPGSV,2,2,08,21,53,204,38,24,58,079,32,27,09,285,37,32,28,257,33*71
$GPGLL,3732.60035,N,07619.94042,W,203630.00,A,A*78
$GPGST,203630.00,13,,,,1.9,1.2,4.0*5E
$GPRMC,203631.00,A,3732.60023,N,07619.94041,W,0.018,77.90,201018,10.96,W,A*37
$GPVTG,77.90,T,88.87,M,0.018,N,0.033,K,A*2C
$GPGGA,203631.00,3732.60023,N,07619.94041,W,1,07,1.44,11.5,M,-35.6,M,,*56
$GPGSA,A,3,21,32,10,27,24,20,15,,,,,,2.37,1.44,1.87*0D
$GPGSV,2,1,08,08,03,313,34,10,47,314,42,15,35,057,45,20,74,341,33*7B
$GPGSV,2,2,08,21,53,204,38,24,58,079,33,27,09,285,36,32,28,257,33*71
$GPGLL,3732.60023,N,07619.94041,W,203631.00,A,A*7D
$GPGST,203631.00,13,,,,1.9,1.2,4.0*5F
$GPRMC,203632.00,A,3732.60012,N,07619.94041,W,0.054,77.90,201018,10.96,W,A*3E
$GPVTG,77.90,T,88.87,M,0.054,N,0.100,K,A*25
$GPGGA,203632.00,3732.60012,N,07619.94041,W,1,07,1.44,11.3,M,-35.6,M,,*51
$GPGSA,A,3,21,32,10,27,24,20,15,,,,,,2.37,1.44,1.87*0D
$GPGSV,2,1,08,08,03,313,34,10,47,314,42,15,35,057,45,20,75,342,32*78
$GPGSV,2,2,08,21,53,204,38,24,58,079,35,27,09,285,36,32,28,257,33*77
$GPGLL,3732.60012,N,07619.94041,W,203632.00,A,A*7C
$GPGST,203632.00,13,,,,1.9,1.2,4.0*5C
!AIVDM,1,1,,B,15N9ag0P00JRU`vEO8O:agvt28AS,0*30
$GPRMC,203633.00,A,3732.59993,N,07619.94038,W,0.031,77.90,201018,10.96,W,A*38
$GPVTG,77.90,T,88.87,M,0.031,N,0.057,K,A*25
$GPGGA,203633.00,3732.59993,N,07619.94038,W,1,07,1.44,11.1,M,-35.6,M,,*56
$GPGSA,A,3,21,32,10,27,24,20,15,,,,,,2.37,1.44,1.87*0D
$GPGSV,2,1,08,08,03,313,34,10,47,314,42,15,35,057,45,20,75,342,32*78
$GPGSV,2,2,08,21,53,204,39,24,58,079,34,27,09,285,36,32,28,257,32*76
$GPGLL,3732.59993,N,07619.94038,W,203633.00,A,A*79
$GPGST,203633.00,13,,,,1.9,1.2,4.0*5D
$GPRMC,203634.00,A,3732.59974,N,07619.94036,W,0.036,77.90,201018,10.96,W,A*3F
$GPVTG,77.90,T,88.87,M,0.036,N,0.066,K,A*20
$GPGGA,203634.00,3732.59974,N,07619.94036,W,1,07,1.44,11.0,M,-35.6,M,,*57
$GPGSA,A,3,21,32,10,27,24,20,15,,,,,,2.37,1.44,1.87*0D
$GPGSV,2,1,08,08,03,313,34,10,47,314,42,15,35,057,45,20,75,342,31*7B
$GPGSV,2,2,08,21,53,204,39,24,58,079,34,27,09,285,36,32,28,257,32*76
$GPGLL,3732.59974,N,07619.94036,W,203634.00,A,A*79
$GPGST,203634.00,14,,,,1.9,1.2,3.9*53
$GPRMC,203635.00,A,3732.59955,N,07619.94036,W,0.008,77.90,201018,10.96,W,A*30
$GPVTG,77.90,T,88.87,M,0.008,N,0.015,K,A*29
$GPGGA,203635.00,3732.59955,N,07619.94036,W,1,07,1.44,11.0,M,-35.6,M,,*55
$GPGSA,A,3,21,32,10,27,24,20,15,,,,,,2.36,1.44,1.87*0C
$GPGSV,2,1,08,08,03,313,33,10,47,314,41,15,35,057,45,20,75,342,32*7C
$GPGSV,2,2,08,21,53,204,40,24,58,079,34,27,09,285,36,32,28,257,31*7B
$GPGLL,3732.59955,N,07619.94036,W,203635.00,A,A*7B
$GPGST,203635.00,14,,,,1.9,1.2,3.9*52
$GPRMC,203636.00,A,3732.59942,N,07619.94039,W,0.010,77.90,201018,10.96,W,A*33
$GPVTG,77.90,T,88.87,M,0.010,N,0.018,K,A*2D
$GPGGA,203636.00,3732.59942,N,07619.94039,W,1,07,1.44,10.8,M,-35.6,M,,*56
$GPGSA,A,3,21,32,10,27,24,20,15,,,,,,2.36,1.44,1.87*0C
$GPGSV,2,1,08,08,03,313,33,10,47,314,42,15,35,057,45,20,75,342,33*7E
$GPGSV,2,2,08,21,53,204,40,24,58,078,35,27,09,285,37,32,28,257,31*7A
$GPGLL,3732.59942,N,07619.94039,W,203636.00,A,A*71
$GPGST,203636.00,13,,,,1.8,1.2,3.9*57
$GPRMC,203637.00,A,3732.59934,N,07619.94039,W,0.017,77.90,201018,10.96,W,A*34
$GPVTG,77.90,T,88.87,M,0.017,N,0.031,K,A*21
$GPGGA,203637.00,3732.59934,N,07619.94039,W,1,07,1.44,10.7,M,-35.6,M,,*59
$GPGSA,A,3,21,32,10,27,24,20,15,,,,,,2.36,1.44,1.87*0C
$GPGSV,2,1,08,08,03,313,33,10,47,314,42,15,35,057,45,20,75,342,33*7E
$GPGSV,2,2,08,21,53,204,40,24,58,078,35,27,09,285,37,32,28,257,32*79
$GPGLL,3732.59934,N,07619.94039,W,203637.00,A,A*71
$GPGST,203637.00,12,,,,1.8,1.2,3.9*57
$GPRMC,203638.00,A,3732.59927,N,07619.94038,W,0.020,77.90,201018,10.96,W,A*3C
$GPVTG,77.90,T,88.87,M,0.020,N,0.037,K,A*23
$GPGGA,203638.00,3732.59927,N,07619.94038,W,1,07,1.44,10.5,M,-35.6,M,,*57
$GPGSA,A,3,21,32,10,27,24,20,15,,,,,,2.36,1.44,1.87*0C
$GPGSV,2,1,08,08,03,313,33,10,47,314,41,15,35,057,44,20,75,342,33*7C
$GPGSV,2,2,08,21,53,204,40,24,58,078,35,27,09,285,37,32,28,257,31*7A
$GPGLL,3732.59927,N,07619.94038,W,203638.00,A,A*7D
$GPGST,203638.00,13,,,,1.8,1.2,3.9*59
$GPRMC,203639.00,A,3732.59922,N,07619.94038,W,0.003,77.90,201018,10.96,W,A*39
$GPVTG,77.90,T,88.87,M,0.003,N,0.005,K,A*23
$GPGGA,203639.00,3732.59922,N,07619.94038,W,1,07,1.44,10.3,M,-35.6,M,,*55
$GPGSA,A,3,21,32,10,27,24,20,15,,,,,,2.36,1.44,1.87*0C
$GPGSV,2,1,08,08,03,313,34,10,47,314,41,15,35,057,44,20,75,342,33*7B
$GPGSV,2,2,08,21,53,204,40,24,58,078,36,27,09,284,37,32,28,257,33*7A
$GPGLL,3732.59922,N,07619.94038,W,203639.00,A,A*79
$GPGST,203639.00,11,,,,1.8,1.2,3.9*5A
!AIVDO,1,1,,B,B52ap3@006`a@:5Gf2PhgwkUCP06,0*68
$GPRMC,203640.00,A,3732.59920,N,07619.94040,W,0.016,77.90,201018,10.96,W,A*3E
$GPVTG,77.90,T,88.87,M,0.016,N,0.029,K,A*29
$GPGGA,203640.00,3732.59920,N,07619.94040,W,1,07,1.44,10.2,M,-35.6,M,,*57
$GPGSA,A,3,21,32,10,27,24,20,15,,,,,,2.36,1.44,1.87*0C
$GPGSV,2,1,08,08,03,313,33,10,47,314,41,15,35,057,44,20,75,342,32*7D
$GPGSV,2,2,08,21,53,204,40,24,58,078,35,27,09,284,37,32,28,257,34*7E
$GPGLL,3732.59920,N,07619.94040,W,203640.00,A,A*7A
$GPGST,203640.00,12,,,,1.8,1.1,3.8*55
$GPRMC,203641.00,A,3732.59919,N,07619.94043,W,0.015,77.90,201018,10.96,W,A*35
$GPVTG,77.90,T,88.87,M,0.015,N,0.028,K,A*2B
$GPGGA,203641.00,3732.59919,N,07619.94043,W,1,07,1.44,10.2,M,-35.6,M,,*5F
$GPGSA,A,3,21,32,10,27,24,20,15,,,,,,2.36,1.44,1.87*0C
$GPGSV,2,1,08,08,03,313,34,10,47,314,41,15,35,057,45,20,75,342,32*7B
$GPGSV,2,2,08,21,53,204,40,24,58,078,34,27,09,284,37,32,28,257,34*7F
$GPGLL,3732.59919,N,07619.94043,W,203641.00,A,A*72
$GPGST,203641.00,12,,,,1.7,1.1,3.8*5B
$GPRMC,203642.00,A,3732.59921,N,07619.94049,W,0.008,77.90,201018,10.96,W,A*3B
$GPVTG,77.90,T,88.87,M,0.008,N,0.014,K,A*28
$GPGGA,203642.00,3732.59921,N,07619.94049,W,1,07,1.44,10.1,M,-35.6,M,,*5E
$GPGSA,A,3,21,32,10,27,24,20,15,,,,,,2.36,1.44,1.87*0C
$GPGSV,2,1,08,08,03,313,34,10,47,314,40,15,35,057,44,20,75,342,32*7B
$GPGSV,2,2,08,21,53,204,41,24,58,078,36,27,09,284,36,32,28,257,34*7D
$GPGLL,3732.59921,N,07619.94049,W,203642.00,A,A*70
$GPGST,203642.00,11,,,,1.7,1.1,3.8*5B
$GPRMC,203643.00,A,3732.59923,N,07619.94051,W,0.005,77.90,201018,10.96,W,A*3C
$GPVTG,77.90,T,88.87,M,0.005,N,0.009,K,A*29
$GPGGA,203643.00,3732.59923,N,07619.94051,W,1,07,1.44,10.1,M,-35.6,M,,*54
$GPGSA,A,3,21,32,10,27,24,20,15,,,,,,2.36,1.44,1.87*0C
$GPGSV,2,1,08,08,03,313,34,10,47,314,41,15,35,057,44,20,75,342,32*7A
$GPGSV,2,2,08,21,53,204,41,24,58,078,35,27,09,284,36,32,28,257,35*7F
$GPGLL,3732.59923,N,07619.94051,W,203643.00,A,A*7A
$GPGST,203643.00,11,,,,1.7,1.1,3.8*5A
$GPRMC,203644.00,A,3732.59924,N,07619.94050,W,0.013,77.90,201018,10.96,W,A*3A
$GPVTG,77.90,T,88.87,M,0.013,N,0.025,K,A*20
$GPGGA,203644.00,3732.59924,N,07619.94050,W,1,07,1.44,10.1,M,-35.6,M,,*55
$GPGSA,A,3,21,32,10,27,24,20,15,,,,,,2.36,1.44,1.87*0C
$GPGSV,2,1,08,08,03,313,35,10,47,314,41,15,35,057,44,20,75,342,32*7B
$GPGSV,2,2,08,21,53,204,40,24,58,078,34,27,09,284,37,32,28,257,36*7D
$GPGLL,3732.59924,N,07619.94050,W,203644.00,A,A*7B
$GPGST,203644.00,11,,,,1.7,1.1,3.8*5D
$GPRMC,203645.00,A,3732.59928,N,07619.94051,W,0.001,77.90,201018,10.96,W,A*35
$GPVTG,77.90,T,88.87,M,0.001,N,0.002,K,A*26
$GPGGA,203645.00,3732.59928,N,07619.94051,W,1,07,1.44,10.2,M,-35.6,M,,*5A
$GPGSA,A,3,21,32,10,27,24,20,15,,,,,,2.36,1.44,1.87*0C
$GPGSV,2,1,08,08,03,313,35,10,47,314,41,15,35,057,44,20,75,342,32*7B
$GPGSV,2,2,08,21,53,204,40,24,58,078,34,27,09,284,36,32,28,257,35*7F
$GPGLL,3732.59928,N,07619.94051,W,203645.00,A,A*77
$GPGST,203645.00,12,,,,1.7,1.1,3.8*5F
$GPRMC,203646.00,A,3732.59928,N,07619.94051,W,0.008,77.90,201018,10.96,W,A*3F
$GPVTG,77.90,T,88.87,M,0.008,N,0.014,K,A*28
$GPGGA,203646.00,3732.59928,N,07619.94051,W,1,07,1.44,10.3,M,-35.6,M,,*58
$GPGSA,A,3,21,32,10,27,24,20,15,,,,,,2.36,1.44,1.87*0C
$GPGSV,2,1,08,08,03,313,35,10,47,314,41,15,35,057,44,20,75,342,32*7B
$GPGSV,2,2,08,21,53,204,39,24,58,078,30,27,09,284,36,32,28,257,34*74
$GPGLL,3732.59928,N,07619.94051,W,203646.00,A,A*74
$GPGST,203646.00,14,,,,1.7,1.1,3.8*5A
$GPRMC,203647.00,A,3732.59929,N,07619.94053,W,0.001,77.90,201018,10.96,W,A*34
$GPVTG,77.90,T,88.87,M,0.001,N,0.002,K,A*26
$GPGGA,203647.00,3732.59929,N,07619.94053,W,1,07,1.44,10.4,M,-35.6,M,,*5D
$GPGSA,A,3,21,32,10,27,24,20,15,,,,,,2.36,1.44,1.87*0C
$GPGSV,2,1,08,08,03,313,35,10,47,314,41,15,35,057,44,20,75,342,30*79
$GPGSV,2,2,08,21,53,204,38,24,58,078,31,27,09,284,37,32,28,257,33*72
$GPGLL,3732.59929,N,07619.94053,W,203647.00,A,A*76
$GPGST,203647.00,15,,,,1.7,1.1,3.8*5A
$GPRMC,203648.00,A,3732.59930,N,07619.94057,W,0.039,77.90,201018,10.96,W,A*3C
$GPVTG,77.90,T,88.87,M,0.039,N,0.073,K,A*2B
$GPGGA,203648.00,3732.59930,N,07619.94057,W,1,07,1.44,10.5,M,-35.6,M,,*5F
$GPGSA,A,3,21,32,10,27,24,20,15,,,,,,2.36,1.44,1.87*0C
$GPGSV,2,1,08,08,03,313,35,10,47,314,41,15,35,057,45,20,75,342,30*78
$GPGSV,2,2,08,21,53,204,38,24,58,078,33,27,09,284,36,32,28,257,33*71
$GPGLL,3732.59930,N,07619.94057,W,203648.00,A,A*75
$GPGST,203648.00,15,,,,1.7,1.1,3.8*55
$GPRMC,203649.00,A,3732.59934,N,07619.94061,W,0.007,77.90,201018,10.96,W,A*31
$GPVTG,77.90,T,88.87,M,0.007,N,0.013,K,A*20
$GPGGA,203649.00,3732.59934,N,07619.94061,W,1,07,1.44,10.7,M,-35.6,M,,*5D
$GPGSA,A,3,21,32,10,27,24,20,15,,,,,,2.36,1.44,1.87*0C
$GPGSV,2,1,08,08,03,313,36,10,47,314,40,15,35,057,45,20,75,342,31*7B
$GPGSV,2,2,08,21,53,204,37,24,58,078,32,27,09,284,36,32,28,257,33*7F
$GPGLL,3732.59934,N,07619.94061,W,203649.00,A,A*75
$GPGST,203649.00,14,,,,1.7,1.1,3.8*55
$GPRMC,203650.00,A,3732.59941,N,07619.94067,W,0.024,77.90,201018,10.96,W,A*3C
$GPVTG,77.90,T,88.87,M,0.024,N,0.044,K,A*23
$GPGGA,203650.00,3732.59941,N,07619.94067,W,1,07,1.44,11.0,M,-35.6,M,,*57
$GPGSA,A,3,21,32,10,27,24,20,15,,,,,,2.36,1.44,1.87*0C
$GPGSV,2,1,08,08,03,313,36,10,47,314,40,15,35,057,45,20,75,342,32*78
$GPGSV,2,2,08,21,53,204,37,24,58,078,31,27,09,284,35,32,28,257,33*7F
$GPGLL,3732.59941,N,07619.94067,W,203650.00,A,A*79
$GPGST,203650.00,15,,,,1.8,1.1,3.8*53
$GPRMC,203651.00,A,3732.59948,N,07619.94073,W,0.047,77.90,201018,10.96,W,A*34
$GPVTG,77.90,T,88.87,M,0.047,N,0.088,K,A*26
$GPGGA,203651.00,3732.59948,N,07619.94073,W,1,07,1.44,11.3,M,-35.6,M,,*59
$GPGSA,A,3,21,32,10,27,24,20,15,,,,,,2.36,1.44,1.87*0C
$GPGSV,2,1,08,08,03,313,36,10,47,314,40,15,35,057,45,20,75,342,32*78
$GPGSV,2,2,08,21,53,204,37,24,58,078,32,27,09,284,34,32,28,257,34*7A
$GPGLL,3732.59948,N,07619.94073,W,203651.00,A,A*74
$GPGST,203651.00,14,,,,1.8,1.1,3.8*53
$GPRMC,203652.00,A,3732.59954,N,07619.94077,W,0.037,77.90,201018,10.96,W,A*39
$GPVTG,77.90,T,88.87,M,0.037,N,0.068,K,A*2F
$GPGGA,203652.00,3732.59954,N,07619.94077,W,1,07,1.44,11.6,M,-35.6,M,,*56
$GPGSA,A,3,21,32,10,27,24,20,15,,,,,,2.36,1.44,1.87*0C
$GPGSV,2,1,08,08,03,313,36,10,47,314,40,15,35,057,45,20,75,342,32*78
$GPGSV,2,2,08,21,53,204,37,24,58,078,32,27,09,284,34,32,28,257,34*7A
$GPGLL,3732.59954,N,07619.94077,W,203652.00,A,A*7E
$GPGST,203652.00,14,,,,1.8,1.1,3.8*50
!AIVDM,1,1,,B,15N9ag0P00JRU`TEO8Nr`OwT2<0G,0*32
$GPRMC,203653.00,A,3732.59959,N,07619.94078,W,0.001,77.90,201018,10.96,W,A*3F
$GPVTG,77.90,T,88.87,M,0.001,N,0.002,K,A*26
$GPGGA,203653.00,3732.59959,N,07619.94078,W,1,07,1.44,11.9,M,-35.6,M,,*5A
$GPGSA,A,3,21,32,10,27,24,20,15,,,,,,2.36,1.44,1.87*0C
$GPGSV,2,1,08,08,03,313,36,10,47,314,41,15,35,057,45,20,75,342,31*7A
$GPGSV,2,2,08,21,53,204,37,24,58,078,32,27,09,284,33,32,28,257,35*7C
$GPGLL,3732.59959,N,07619.94078,W,203653.00,A,A*7D
$GPGST,203653.00,15,,,,1.8,1.1,3.8*50
$GPRMC,203654.00,A,3732.59967,N,07619.94071,W,0.007,77.90,201018,10.96,W,A*3A
$GPVTG,77.90,T,88.87,M,0.007,N,0.014,K,A*27
$GPGGA,203654.00,3732.59967,N,07619.94071,W,1,07,1.44,12.5,M,-35.6,M,,*56
$GPGSA,A,3,21,32,10,27,24,20,15,,,,,,2.36,1.44,1.87*0C
$GPGSV,2,1,08,08,03,313,37,10,47,314,42,15,35,057,44,20,75,342,32*7A
$GPGSV,2,2,08,21,53,204,38,24,58,078,31,27,09,284,31,32,28,257,38*7F
$GPGLL,3732.59967,N,07619.94071,W,203654.00,A,A*7E
$GPGST,203654.00,15,,,,1.8,1.1,3.8*57
$GPRMC,203655.00,A,3732.59970,N,07619.94066,W,0.014,77.90,201018,10.96,W,A*39
$GPVTG,77.90,T,88.87,M,0.014,N,0.025,K,A*27
$GPGGA,203655.00,3732.59970,N,07619.94066,W,1,07,1.44,12.9,M,-35.6,M,,*5B
$GPGSA,A,3,21,32,10,27,24,20,15,,,,,,2.36,1.44,1.87*0C
$GPGSV,2,1,08,08,03,313,37,10,47,314,40,15,35,057,44,20,75,342,33*79
$GPGSV,2,2,08,21,53,204,39,24,58,078,31,27,09,284,32,32,28,257,37*72
$GPGLL,3732.59970,N,07619.94066,W,203655.00,A,A*7F
$GPGST,203655.00,14,,,,1.8,1.1,3.8*57
$GPRMC,203656.00,A,3732.59969,N,07619.94067,W,0.052,77.90,201018,10.96,W,A*31
$GPVTG,77.90,T,88.87,M,0.052,N,0.097,K,A*2C
$GPGGA,203656.00,3732.59969,N,07619.94067,W,1,07,1.51,13.0,M,-35.6,M,,*5D
$GPGSA,A,3,21,32,10,27,24,20,15,,,,,,2.42,1.51,1.89*05
$GPGSV,2,1,08,08,03,313,37,10,47,314,40,15,35,057,44,20,75,342,32*78
$GPGSV,2,2,08,21,53,204,38,24,58,078,31,27,09,284,33,32,28,257,37*72
$GPGLL,3732.59969,N,07619.94067,W,203656.00,A,A*75
$GPGST,203656.00,15,,,,1.8,1.1,3.9*54
$GPRMC,203657.00,A,3732.59965,N,07619.94066,W,0.001,77.90,201018,10.96,W,A*3B
$GPVTG,77.90,T,88.87,M,0.001,N,0.002,K,A*26
$GPGGA,203657.00,3732.59965,N,07619.94066,W,1,07,1.44,13.0,M,-35.6,M,,*55
$GPGSA,A,3,21,32,10,27,24,20,15,,,,,,2.36,1.44,1.87*0C
$GPGSV,2,1,08,08,03,313,37,10,47,314,42,15,35,057,44,20,75,342,32*7A
$GPGSV,2,2,08,21,53,204,38,24,58,078,32,27,09,284,34,32,28,257,38*79
$GPGLL,3732.59965,N,07619.94066,W,203657.00,A,A*79
$GPGST,203657.00,23,,,,1.8,1.1,3.9*50
$GPRMC,203658.00,A,3732.59963,N,07619.94066,W,0.024,77.90,201018,10.96,W,A*35
$GPVTG,77.90,T,88.87,M,0.024,N,0.044,K,A*23
$GPGGA,203658.00,3732.59963,N,07619.94066,W,1,07,1.44,13.0,M,-35.6,M,,*5C
$GPGSA,A,3,21,32,10,27,24,20,15,,,,,,2.36,1.44,1.87*0C
$GPGSV,2,1,08,08,03,313,37,10,47,314,42,15,35,057,44,20,75,342,31*79
$GPGSV,2,2,08,21,53,204,37,24,58,078,33,27,09,284,34,32,28,257,38*77
$GPGLL,3732.59963,N,07619.94066,W,203658.00,A,A*70
$GPGST,203658.00,20,,,,1.9,1.1,3.9*5D
$AITXT,01,01,03,Ending DSC monitor period on channel 1*12
$GPRMC,203659.00,A,3732.59959,N,07619.94065,W,0.015,77.90,201018,10.96,W,A*3C
$GPVTG,77.90,T,88.87,M,0.015,N,0.028,K,A*2B
$GPGGA,203659.00,3732.59959,N,07619.94065,W,1,07,1.44,13.0,M,-35.6,M,,*57
$GPGSA,A,3,21,32,10,27,24,20,15,,,,,,2.36,1.44,1.87*0C
$GPGSV,2,1,08,08,03,313,37,10,47,314,42,15,35,057,45,20,75,342,30*79
$GPGSV,2,2,08,21,53,204,37,24,58,078,34,27,09,284,33,32,28,257,37*78
$GPGLL,3732.59959,N,07619.94065,W,203659.00,A,A*7B
$GPGST,203659.00,18,,,,1.9,1.1,3.9*57
$GPRMC,203700.00,A,3732.59955,N,07619.94066,W,0.018,77.90,201018,10.96,W,A*33
$GPVTG,77.90,T,88.87,M,0.018,N,0.033,K,A*2C
$GPGGA,203700.00,3732.59955,N,07619.94066,W,1,07,1.44,13.0,M,-35.6,M,,*55
$GPGSA,A,3,21,32,10,27,24,20,15,,,,,,2.36,1.44,1.87*0C
$GPGSV,2,1,08,08,03,313,37,10,47,314,42,15,35,057,44,20,75,342,28*71
$GPGSV,2,2,08,21,53,204,37,24,58,078,35,27,09,284,34,32,28,257,38*71
$GPGLL,3732.59955,N,07619.94066,W,203700.00,A,A*79
$GPGST,203700.00,17,,,,1.9,1.1,4.0*5B
$GPRMC,203701.00,A,3732.59951,N,07619.94063,W,0.009,77.90,201018,10.96,W,A*33
$GPVTG,77.90,T,88.87,M,0.009,N,0.016,K,A*2B
$GPGGA,203701.00,3732.59951,N,07619.94063,W,1,07,1.44,13.1,M,-35.6,M,,*54
$GPGSA,A,3,21,32,10,27,24,20,15,,,,,,2.36,1.44,1.87*0C
$GPGSV,2,1,08,08,03,313,37,10,47,314,43,15,35,057,44,20,75,342,26*7E
$GPGSV,2,2,08,21,53,204,37,24,58,078,34,27,09,284,34,32,28,257,37*7F
$GPGLL,3732.59951,N,07619.94063,W,203701.00,A,A*79
$GPGST,203701.00,17,,,,1.9,1.1,4.0*5A
$GPRMC,203702.00,A,3732.59937,N,07619.94056,W,0.033,77.90,201018,10.96,W,A*3F
$GPVTG,77.90,T,88.87,M,0.033,N,0.062,K,A*21
$GPGGA,203702.00,3732.59937,N,07619.94056,W,1,07,1.44,13.3,M,-35.6,M,,*53
$GPGSA,A,3,21,32,10,27,24,20,15,,,,,,2.36,1.44,1.87*0C
$GPGSV,2,1,08,08,03,313,37,10,47,314,42,15,35,057,44,20,75,342,25*7C
$GPGSV,2,2,08,21,53,204,39,24,58,078,32,27,09,284,34,32,28,257,36*76
$GPGLL,3732.59937,N,07619.94056,W,203702.00,A,A*7C
$GPGST,203702.00,18,,,,1.9,1.1,4.0*56
!AIVDM,1,1,,A,15N9ag0P00JRU`REO8NJa?v028Ru,0*4F
$GPRMC,203703.00,A,3732.59931,N,07619.94048,W,0.012,77.90,201018,10.96,W,A*34
$GPVTG,77.90,T,88.87,M,0.012,N,0.021,K,A*25
$GPGGA,203703.00,3732.59931,N,07619.94048,W,1,07,1.44,13.6,M,-35.6,M,,*5E
$GPGSA,A,3,21,32,10,27,24,20,15,,,,,,2.36,1.44,1.86*0D
$GPGSV,2,1,08,08,03,313,37,10,47,314,42,15,35,057,44,20,75,342,26*7F
$GPGSV,2,2,08,21,53,204,39,24,58,078,32,27,09,284,34,32,28,257,37*77
$GPGLL,3732.59931,N,07619.94048,W,203703.00,A,A*74
$GPGST,203703.00,17,,,,1.8,1.1,4.0*59
$GPRMC,203704.00,A,3732.59929,N,07619.94040,W,0.014,77.90,201018,10.96,W,A*34
$GPVTG,77.90,T,88.87,M,0.014,N,0.027,K,A*25
$GPGGA,203704.00,3732.59929,N,07619.94040,W,1,07,1.44,13.9,M,-35.6,M,,*57
$GPGSA,A,3,21,32,10,27,24,20,15,,,,,,2.36,1.44,1.86*0D
$GPGSV,2,1,08,08,03,313,37,10,47,314,43,15,35,057,44,20,75,342,25*7D
$GPGSV,2,2,08,21,53,204,39,24,58,078,31,27,09,284,31,32,28,257,37*71
$GPGLL,3732.59929,N,07619.94040,W,203704.00,A,A*72
$GPGST,203704.00,20,,,,1.8,1.1,4.0*5A
$GPRMC,203705.00,A,3732.59933,N,07619.94029,W,0.032,77.90,201018,10.96,W,A*35
$GPVTG,77.90,T,88.87,M,0.032,N,0.060,K,A*22
$GPGGA,203705.00,3732.59933,N,07619.94029,W,1,07,1.44,14.2,M,-35.6,M,,*5E
$GPGSA,A,3,21,32,10,27,24,20,15,,,,,,2.36,1.44,1.86*0D
$GPGSV,2,1,08,08,03,313,37,10,47,314,42,15,35,057,43,20,75,342,26*78
$GPGSV,2,2,08,21,53,204,38,24,58,078,31,27,09,284,32,32,28,257,38*7C
$GPGLL,3732.59933,N,07619.94029,W,203705.00,A,A*77
$GPGST,203705.00,18,,,,1.8,1.1,4.1*51
$GPRMC,203706.00,A,3732.59936,N,07619.94021,W,0.045,77.90,201018,10.96,W,A*3B
$GPVTG,77.90,T,88.87,M,0.045,N,0.083,K,A*2F
$GPGGA,203706.00,3732.59936,N,07619.94021,W,1,07,1.44,14.3,M,-35.6,M,,*51
$GPGSA,A,3,21,32,10,27,24,20,15,,,,,,2.36,1.44,1.86*0D
$GPGSV,2,1,08,08,03,313,36,10,47,314,41,15,35,057,43,20,75,342,26*7A
$GPGSV,2,2,08,21,53,204,37,24,58,078,33,27,09,284,32,32,28,257,37*7E
$GPGLL,3732.59936,N,07619.94021,W,203706.00,A,A*79
$GPGST,203706.00,17,,,,1.8,1.1,4.1*5D
$GPRMC,203707.00,A,3732.59941,N,07619.94013,W,0.015,77.90,201018,10.96,W,A*3E
$GPVTG,77.90,T,88.87,M,0.015,N,0.027,K,A*24
$GPGGA,203707.00,3732.59941,N,07619.94013,W,1,07,1.44,14.6,M,-35.6,M,,*54
$GPGSA,A,3,21,32,10,27,24,20,15,,,,,,2.36,1.44,1.86*0D
$GPGSV,2,1,08,08,03,313,36,10,47,314,41,15,35,057,43,20,75,342,26*7A
$GPGSV,2,2,08,21,53,204,37,24,58,078,32,27,09,284,31,32,28,257,37*7C
$GPGLL,3732.59941,N,07619.94013,W,203707.00,A,A*79
$GPGST,203707.00,18,,,,1.8,1.1,4.1*53
!AIVDM,1,1,,A,B5NaKp0006`aJk5GjEFagwRUWP06,0*0F
$GPRMC,203708.00,A,3732.59945,N,07619.94007,W,0.011,77.90,201018,10.96,W,A*34
$GPVTG,77.90,T,88.87,M,0.011,N,0.021,K,A*26
$GPGGA,203708.00,3732.59945,N,07619.94007,W,1,07,1.44,14.7,M,-35.6,M,,*5B
$GPGSA,A,3,21,32,10,27,24,20,15,,,,,,2.36,1.44,1.86*0D
$GPGSV,2,1,08,08,03,313,36,10,47,314,40,15,35,057,43,20,75,342,25*78
$GPGSV,2,2,08,21,53,204,37,24,58,078,32,27,09,284,32,32,28,257,36*7E
$GPGLL,3732.59945,N,07619.94007,W,203708.00,A,A*77
$GPGST,203708.00,19,,,,1.9,1.1,4.2*5F
$GPRMC,203709.00,A,3732.59949,N,07619.94002,W,0.037,77.90,201018,10.96,W,A*38
$GPVTG,77.90,T,88.87,M,0.037,N,0.068,K,A*2F
$GPGGA,203709.00,3732.59949,N,07619.94002,W,1,07,1.44,14.9,M,-35.6,M,,*5D
$GPGSA,A,3,21,32,10,27,24,20,15,,,,,,2.36,1.44,1.86*0D
$GPGSV,2,1,08,08,03,313,36,10,47,314,41,15,35,057,43,20,75,342,26*7A
$GPGSV,2,2,08,21,53,204,38,24,58,078,32,27,09,284,33,32,28,257,36*70
$GPGLL,3732.59949,N,07619.94002,W,203709.00,A,A*7F
$GPGST,203709.00,17,,,,1.9,1.1,4.2*50
$GPRMC,203710.00,A,3732.59956,N,07619.93997,W,0.031,77.90,201018,10.96,W,A*3A
$GPVTG,77.90,T,88.87,M,0.031,N,0.057,K,A*25
$GPGGA,203710.00,3732.59956,N,07619.93997,W,1,07,1.44,15.1,M,-35.6,M,,*50
$GPGSA,A,3,21,32,10,27,24,20,15,,,,,,2.36,1.44,1.86*0D
$GPGSV,2,1,08,08,03,313,36,10,47,314,40,15,35,057,43,20,75,342,27*7A
$GPGSV,2,2,08,21,53,204,37,24,58,078,32,27,09,284,32,32,28,257,36*7E
$GPGLL,3732.59956,N,07619.93997,W,203710.00,A,A*7B
$GPGST,203710.00,17,,,,1.9,1.1,4.2*58
!AIVDO,1,1,,A,B52ap3@006`a@<5Gf2hhgwU5CP06,0*0B
$GPRMC,203711.00,A,3732.59962,N,07619.93991,W,0.045,77.90,201018,10.96,W,A*39
$GPVTG,77.90,T,88.87,M,0.045,N,0.084,K,A*28
$GPGGA,203711.00,3732.59962,N,07619.93991,W,1,07,1.44,15.2,M,-35.6,M,,*53
$GPGSA,A,3,21,32,10,27,24,20,15,,,,,,2.36,1.44,1.86*0D
$GPGSV,2,1,08,08,03,313,36,10,47,314,41,15,35,057,43,20,75,342,28*74
$GPGSV,2,2,08,21,53,204,37,24,58,078,32,27,09,284,33,32,28,257,36*7F
$GPGLL,3732.59962,N,07619.93991,W,203711.00,A,A*7B
$GPGST,203711.00,16,,,,1.9,1.1,4.2*58
$GPRMC,203712.00,A,3732.59966,N,07619.93986,W,0.017,77.90,201018,10.96,W,A*3F
$GPVTG,77.90,T,88.87,M,0.017,N,0.031,K,A*21
$GPGGA,203712.00,3732.59966,N,07619.93986,W,1,07,1.44,15.2,M,-35.6,M,,*52
$GPGSA,A,3,21,32,10,27,24,20,15,,,,,,2.36,1.44,1.86*0D
$GPGSV,2,1,08,08,03,313,36,10,47,314,42,15,35,057,43,20,75,342,29*76
$GPGSV,2,2,08,21,53,204,37,24,58,078,33,27,09,284,34,32,28,257,36*79
$GPGLL,3732.59966,N,07619.93986,W,203712.00,A,A*7A
$GPGST,203712.00,14,,,,1.9,1.1,4.2*59
!AIVDM,1,1,,B,15N9ag0P00JRU`TEO8OJcwvD2D0G,0*59
$GPRMC,203713.00,A,3732.59968,N,07619.93981,W,0.019,77.90,201018,10.96,W,A*39
$GPVTG,77.90,T,88.87,M,0.019,N,0.036,K,A*28
$GPGGA,203713.00,3732.59968,N,07619.93981,W,1,07,1.44,15.2,M,-35.6,M,,*5A
$GPGSA,A,3,21,32,10,27,24,20,15,,,,,,2.36,1.44,1.86*0D
$GPGSV,2,1,08,08,03,313,35,10,47,314,42,15,35,057,43,20,75,342,30*7D
$GPGSV,2,2,08,21,53,204,37,24,58,078,33,27,09,284,34,32,28,257,36*79
$GPGLL,3732.59968,N,07619.93981,W,203713.00,A,A*72
$GPGST,203713.00,14,,,,1.9,1.1,4.2*58
$GPRMC,203714.00,A,3732.59968,N,07619.93977,W,0.042,77.90,201018,10.96,W,A*39
$GPVTG,77.90,T,88.87,M,0.042,N,0.078,K,A*2C
$GPGGA,203714.00,3732.59968,N,07619.93977,W,1,07,1.44,15.2,M,-35.6,M,,*54
$GPGSA,A,3,21,32,10,27,24,20,15,,,,,,2.36,1.44,1.86*0D
$GPGSV,2,1,08,08,03,313,35,10,47,314,42,15,35,057,43,20,75,342,31*7C
$GPGSV,2,2,08,21,53,204,37,24,58,078,33,27,09,284,34,32,28,257,35*7A
$GPGLL,3732.59968,N,07619.93977,W,203714.00,A,A*7C
$GPGST,203714.00,13,,,,1.9,1.1,4.2*58
!AIVDM,1,1,,A,15NwH;0000JRb<<EOFlaec0d2<0Q,0*6E
$GPRMC,203715.00,A,3732.59969,N,07619.93974,W,0.039,77.90,201018,10.96,W,A*36
$GPVTG,77.90,T,88.87,M,0.039,N,0.072,K,A*2A
$GPGGA,203715.00,3732.59969,N,07619.93974,W,1,07,1.44,15.1,M,-35.6,M,,*54
$GPGSA,A,3,21,32,10,27,24,20,15,,,,,,2.35,1.44,1.86*0E
$GPGSV,2,1,08,08,03,313,35,10,47,314,42,15,35,057,44,20,75,342,31*7B
$GPGSV,2,2,08,21,53,204,37,24,58,078,34,27,09,284,35,32,28,257,35*7C
$GPGLL,3732.59969,N,07619.93974,W,203715.00,A,A*7F
$GPGST,203715.00,13,,,,1.9,1.1,4.2*59
!AIVDM,1,1,,B,H4eHL7A>uJ0I8DF05B0h5=B3400,2*5C
$GPRMC,203716.00,A,3732.59965,N,07619.93971,W,0.013,77.90,201018,10.96,W,A*34
$GPVTG,77.90,T,88.87,M,0.013,N,0.025,K,A*20
$GPGGA,203716.00,3732.59965,N,07619.93971,W,1,07,1.44,14.9,M,-35.6,M,,*57
$GPGSA,A,3,21,32,10,27,24,20,15,,,,,,2.35,1.44,1.86*0E
$GPGSV,2,1,08,08,03,313,35,10,47,314,42,15,35,057,44,20,75,342,31*7B
$GPGSV,2,2,08,21,53,204,38,24,58,078,33,27,09,284,36,32,28,257,34*76
$GPGLL,3732.59965,N,07619.93971,W,203716.00,A,A*75
$GPGST,203716.00,13,,,,1.9,1.1,4.2*5A
$GPRMC,203717.00,A,3732.59961,N,07619.93966,W,0.019,77.90,201018,10.96,W,A*3D
$GPVTG,77.90,T,88.87,M,0.019,N,0.035,K,A*2B
$GPGGA,203717.00,3732.59961,N,07619.93966,W,1,07,1.44,14.6,M,-35.6,M,,*5B
$GPGSA,A,3,21,32,10,27,24,20,15,,,,,,2.35,1.44,1.86*0E
$GPGSV,2,1,08,08,03,313,35,10,47,314,43,15,35,057,44,20,75,342,30*7B
$GPGSV,2,2,08,21,53,204,38,24,58,078,32,27,09,284,36,32,28,257,33*70
$GPGLL,3732.59961,N,07619.93966,W,203717.00,A,A*76
$GPGST,203717.00,15,,,,1.9,1.1,4.2*5D
$GPRMC,203718.00,A,3732.59957,N,07619.93961,W,0.019,77.90,201018,10.96,W,A*30
$GPVTG,77.90,T,88.87,M,0.019,N,0.034,K,A*2A
$GPGGA,203718.00,3732.59957,N,07619.93961,W,1,07,1.44,14.4,M,-35.6,M,,*54
$GPGSA,A,3,21,32,10,27,24,20,15,,,,,,2.35,1.44,1.86*0E
$GPGSV,2,1,08,08,03,313,35,10,47,314,43,15,35,057,44,20,75,342,31*7A
$GPGSV,2,2,08,21,53,204,38,24,58,078,32,27,09,284,36,32,28,257,34*77
$GPGLL,3732.59957,N,07619.93961,W,203718.00,A,A*7B
$GPGST,203718.00,14,,,,1.9,1.1,4.1*50
$GPRMC,203719.00,A,3732.59955,N,07619.93957,W,0.004,77.90,201018,10.96,W,A*3A
$GPVTG,77.90,T,88.87,M,0.004,N,0.007,K,A*26
$GPGGA,203719.00,3732.59955,N,07619.93957,W,1,07,1.44,14.2,M,-35.6,M,,*54
$GPGSA,A,3,21,32,10,27,24,20,15,,,,,,2.35,1.44,1.86*0E
$GPGSV,2,1,08,08,03,313,36,10,47,314,43,15,35,057,44,20,75,342,31*79
$GPGSV,2,2,08,21,53,204,38,24,58,078,34,27,09,284,36,32,28,257,34*71
$GPGLL,3732.59955,N,07619.93957,W,203719.00,A,A*7D
$GPGST,203719.00,13,,,,1.9,1.1,4.1*56
$GPRMC,203720.00,A,3732.59954,N,07619.93954,W,0.012,77.90,201018,10.96,W,A*35
$GPVTG,77.90,T,88.87,M,0.012,N,0.021,K,A*25
$GPGGA,203720.00,3732.59954,N,07619.93954,W,1,07,1.44,13.9,M,-35.6,M,,*50
$GPGSA,A,3,21,32,10,27,24,20,15,,,,,,2.35,1.44,1.86*0E
$GPGSV,2,1,08,08,03,313,36,10,47,314,43,15,35,057,44,20,75,342,32*7A
$GPGSV,2,2,08,21,53,204,39,24,58,078,35,27,09,284,37,32,28,257,34*70
$GPGLL,3732.59954,N,07619.93954,W,203720.00,A,A*75
$GPGST,203720.00,11,,,,1.9,1.1,4.1*5E
!AIVDM,1,1,,B,B52Kr>000>`aMkUGi:V:cwa5WP06,0*22
$GPRMC,203721.00,A,3732.59952,N,07619.93950,W,0.007,77.90,201018,10.96,W,A*32
$GPVTG,77.90,T,88.87,M,0.007,N,0.013,K,A*20
$GPGGA,203721.00,3732.59952,N,07619.93950,W,1,07,1.44,13.6,M,-35.6,M,,*5C
$GPGSA,A,3,21,32,10,27,24,20,15,,,,,,2.35,1.44,1.86*0E
$GPGSV,2,1,08,08,03,313,36,10,47,314,43,15,35,057,44,20,75,342,32*7A
$GPGSV,2,2,08,21,53,204,39,24,58,078,35,27,09,284,36,32,28,257,34*71
$GPGLL,3732.59952,N,07619.93950,W,203721.00,A,A*76
$GPGST,203721.00,12,,,,1.8,1.1,4.1*5D
$GPRMC,203722.00,A,3732.59951,N,07619.93946,W,0.014,77.90,201018,10.96,W,A*37
$GPVTG,77.90,T,88.87,M,0.014,N,0.026,K,A*24
$GPGGA,203722.00,3732.59951,N,07619.93946,W,1,07,1.44,13.4,M,-35.6,M,,*59
$GPGSA,A,3,21,32,10,27,24,20,15,,,,,,2.35,1.44,1.86*0E
$GPGSV,2,1,08,08,03,313,36,10,47,314,42,15,35,057,44,20,75,342,32*7B
$GPGSV,2,2,08,21,53,204,38,24,58,078,35,27,09,284,36,32,28,257,33*77
$GPGLL,3732.59951,N,07619.93946,W,203722.00,A,A*71
$GPGST,203722.00,12,,,,1.8,1.1,4.0*5F
!AIVDM,1,1,,A,15N9ag0P00JRU`LEO8P:WOv`2H;Q,0*14
$GPRMC,203723.00,A,3732.59953,N,07619.93946,W,0.048,77.90,201018,10.96,W,A*3D
$GPVTG,77.90,T,88.87,M,0.048,N,0.089,K,A*28
$GPGGA,203723.00,3732.59953,N,07619.93946,W,1,07,1.44,13.2,M,-35.6,M,,*5C
$GPGSA,A,3,21,32,10,27,24,20,15,,,,,,2.35,1.44,1.86*0E
$GPGSV,2,1,08,08,03,313,36,10,47,314,42,15,35,057,44,20,75,342,32*7B
$GPGSV,2,2,08,21,53,204,38,24,58,078,34,27,09,284,36,32,28,257,32*77
$GPGLL,3732.59953,N,07619.93946,W,203723.00,A,A*72
$GPGST,203723.00,13,,,,1.8,1.1,4.0*5F
$GPRMC,203724.00,A,3732.59954,N,07619.93946,W,0.012,77.90,201018,10.96,W,A*32
$GPVTG,77.90,T,88.87,M,0.012,N,0.023,K,A*27
$GPGGA,203724.00,3732.59954,N,07619.93946,W,1,07,1.44,13.0,M,-35.6,M,,*5E
$GPGSA,A,3,21,32,10,27,24,20,15,,,,,,2.35,1.44,1.86*0E
$GPGSV,2,1,08,08,03,313,36,10,47,314,42,15,35,057,44,20,75,342,32*7B
$GPGSV,2,2,08,21,53,204,38,24,58,078,35,27,09,284,36,32,28,257,32*76
$GPGLL,3732.59954,N,07619.93946,W,203724.00,A,A*72
$GPGST,203724.00,13,,,,1.8,1.1,4.0*58
$GPRMC,203725.00,A,3732.59956,N,07619.93947,W,0.025,77.90,201018,10.96,W,A*34
$GPVTG,77.90,T,88.87,M,0.025,N,0.046,K,A*20
$GPGGA,203725.00,3732.59956,N,07619.93947,W,1,07,1.44,12.8,M,-35.6,M,,*55
$GPGSA,A,3,21,32,10,27,24,20,15,,,,,,2.35,1.44,1.86*0E
$GPGSV,2,1,08,08,03,313,36,10,47,314,42,15,35,057,43,20,75,342,33*7D
$GPGSV,2,2,08,21,53,204,38,24,58,078,35,27,09,284,36,32,28,257,32*76
$GPGLL,3732.59956,N,07619.93947,W,203725.00,A,A*70
$GPGST,203725.00,12,,,,1.8,1.1,4.0*58
$GPRMC,203726.00,A,3732.59958,N,07619.93948,W,0.016,77.90,201018,10.96,W,A*36
$GPVTG,77.90,T,88.87,M,0.016,N,0.030,K,A*21
$GPGGA,203726.00,3732.59958,N,07619.93948,W,1,07,1.44,12.4,M,-35.6,M,,*5B
$GPGSA,A,3,21,32,10,27,24,20,15,,,,,,2.35,1.44,1.86*0E
$GPGSV,2,1,08,08,03,313,37,10,47,314,43,15,35,057,45,20,75,342,35*7D
$GPGSV,2,2,08,21,53,204,40,24,58,078,37,27,09,284,37,32,28,257,30*78
$GPGLL,3732.59958,N,07619.93948,W,203726.00,A,A*72
$GPGST,203726.00,12,,,,1.8,1.1,3.9*55
!AIVDM,1,1,,A,H5NTbf4U653hhhiG48jqhk0h:420,0*12
$GPRMC,203727.00,A,3732.59959,N,07619.93948,W,0.019,77.90,201018,10.96,W,A*39
$GPVTG,77.90,T,88.87,M,0.019,N,0.035,K,A*2B
$GPGGA,203727.00,3732.59959,N,07619.93948,W,1,07,1.44,12.0,M,-35.6,M,,*5F
$GPGSA,A,3,21,32,10,27,24,20,15,,,,,,2.35,1.44,1.86*0E
$GPGSV,2,1,08,08,03,313,37,10,47,314,43,15,35,057,44,20,75,342,34*7D
$GPGSV,2,2,08,21,53,204,40,24,58,078,37,27,09,284,36,32,28,257,29*71
$GPGLL,3732.59959,N,07619.93948,W,203727.00,A,A*72
$GPGST,203727.00,13,,,,1.8,1.1,3.9*55
$GPRMC,203728.00,A,3732.59961,N,07619.93947,W,0.011,77.90,201018,10.96,W,A*3A
$GPVTG,77.90,T,88.87,M,0.011,N,0.020,K,A*27
$GPGGA,203728.00,3732.59961,N,07619.93947,W,1,07,1.44,11.4,M,-35.6,M,,*53
!AIVDM,1,1,,B,H4eHL7DTC=D4b=DG4iqojl1P1400,0*6C
$GPGSA,A,3,21,32,10,27,24,20,15,,,,,,2.35,1.44,1.86*0E
$GPGSV,2,1,08,08,03,313,37,10,47,314,43,15,35,057,45,20,75,342,35*7D
$GPGSV,2,2,08,21,53,204,40,24,58,078,36,27,09,284,37,32,28,257,29*71
$GPGLL,3732.59961,N,07619.93947,W,203728.00,A,A*79
$GPGST,203728.00,13,,,,1.7,1.1,3.8*54
$GPRMC,203729.00,A,3732.59963,N,07619.93947,W,0.012,77.90,201018,10.96,W,A*3A
$GPVTG,77.90,T,88.87,M,0.012,N,0.022,K,A*26
$GPGGA,203729.00,3732.59963,N,07619.93947,W,1,07,1.44,10.9,M,-35.6,M,,*5C
$GPGSA,A,3,21,32,10,27,24,20,15,,,,,,2.35,1.44,1.86*0E
$GPGSV,2,1,08,08,03,313,37,10,47,314,43,15,35,057,45,20,75,342,35*7D
$GPGSV,2,2,08,21,53,204,40,24,58,078,37,27,09,284,36,32,28,257,28*70
$GPGLL,3732.59963,N,07619.93947,W,203729.00,A,A*7A
$GPGST,203729.00,14,,,,1.7,1.1,3.8*52
!AIVDM,1,1,,A,15Nvlj0P01JRbV8EOOkH6wvn20S9,0*3E
$GPRMC,203730.00,A,3732.59962,N,07619.93948,W,0.017,77.90,201018,10.96,W,A*39
$GPVTG,77.90,T,88.87,M,0.017,N,0.031,K,A*21
$GPGGA,203730.00,3732.59962,N,07619.93948,W,1,07,1.44,10.3,M,-35.6,M,,*50
$GPGSA,A,3,21,32,10,27,24,20,15,,,,,,2.35,1.44,1.86*0E
$GPGSV,2,1,08,08,03,313,37,10,47,314,44,15,35,057,45,20,75,342,35*7A
$GPGSV,2,2,08,21,53,204,39,24,58,078,38,27,09,284,36,32,28,257,26*7F
$GPGLL,3732.59962,N,07619.93948,W,203730.00,A,A*7C
$GPGST,203730.00,16,,,,1.7,1.1,3.8*58
!AIVDM,1,1,,A,B5Mw3C000>`aJG5Gih10wweUoP06,0*62
!AIVDM,1,1,,A,B5`V7V00CN`dQnUGhdb0gweUoP06,0*65
$GPRMC,203731.00,A,3732.59959,N,07619.93947,W,0.026,77.90,201018,10.96,W,A*3D
$GPVTG,77.90,T,88.87,M,0.026,N,0.049,K,A*2C
$GPGGA,203731.00,3732.59959,N,07619.93947,W,1,07,1.44,9.8,M,-35.6,M,,*65
$GPGSA,A,3,21,32,10,27,24,20,15,,,,,,2.35,1.44,1.86*0E
$GPGSV,2,1,08,08,03,313,37,10,47,314,44,15,35,057,45,20,75,342,35*7A
$GPGSV,2,2,08,21,53,204,39,24,58,078,36,27,09,284,36,32,28,257,25*72
$GPGLL,3732.59959,N,07619.93947,W,203731.00,A,A*7A
$GPGST,203731.00,18,,,,1.7,1.1,3.8*57
$GPRMC,203732.00,A,3732.59952,N,07619.93946,W,0.025,77.90,201018,10.96,W,A*37
$GPVTG,77.90,T,88.87,M,0.025,N,0.047,K,A*21
$GPGGA,203732.00,3732.59952,N,07619.93946,W,1,07,1.44,9.3,M,-35.6,M,,*67
$GPGSA,A,3,21,32,10,27,24,20,15,,,,,,2.35,1.44,1.86*0E
$GPGSV,2,1,08,08,03,313,36,10,47,314,44,15,35,057,45,20,75,342,36*78
$GPGSV,2,2,08,21,53,204,39,24,58,078,37,27,09,284,36,32,28,257,23*75
$GPGLL,3732.59952,N,07619.93946,W,203732.00,A,A*73
$GPGST,203732.00,20,,,,1.7,1.1,3.8*5F
!AIVDM,1,1,,B,15N9ag0P00JRU`FEO8PbT?vt26RD,0*20
$GPRMC,203733.00,A,3732.59946,N,07619.93944,W,0.002,77.90,201018,10.96,W,A*34
$GPVTG,77.90,T,88.87,M,0.002,N,0.003,K,A*24
$GPGGA,203733.00,3732.59946,N,07619.93944,W,1,07,1.44,8.7,M,-35.6,M,,*64
$GPGSA,A,3,21,32,10,27,24,20,15,,,,,,2.35,1.44,1.86*0E
$GPGSV,2,1,08,08,03,313,36,10,47,314,43,15,35,057,45,20,75,342,36*7F
$GPGSV,2,2,08,21,53,204,39,24,58,078,37,27,09,284,36,32,28,257,21*77
$GPGLL,3732.59946,N,07619.93944,W,203733.00,A,A*75
$GPGST,203733.00,29,,,,1.7,1.1,3.7*58
!AIVDM,1,1,,A,15NwH;0000JRb<DEOFlIQs1B2<0Q,0*3D
$GPRMC,203734.00,A,3732.59941,N,07619.93942,W,0.019,77.90,201018,10.96,W,A*38
$GPVTG,77.90,T,88.87,M,0.019,N,0.035,K,A*2B
$GPGGA,203734.00,3732.59941,N,07619.93942,W,1,07,1.44,8.2,M,-35.6,M,,*67
$GPGSA,A,3,21,32,10,27,24,20,15,,,,,,2.35,1.44,1.86*0E
$GPGSV,2,1,08,08,03,313,36,10,47,314,43,15,35,057,45,20,75,342,35*7C
$GPGSV,2,2,08,21,53,204,39,24,58,078,37,27,09,284,36,32,28,257,18*7D
$GPGLL,3732.59941,N,07619.93942,W,203734.00,A,A*73
$GPGST,203734.00,32,,,,1.7,1.1,3.7*55
$GPRMC,203735.00,A,3732.59938,N,07619.93942,W,0.008,77.90,201018,10.96,W,A*37
$GPVTG,77.90,T,88.87,M,0.008,N,0.014,K,A*28
$GPGGA,203735.00,3732.59938,N,07619.93942,W,1,07,1.44,7.8,M,-35.6,M,,*6D
$GPGSA,A,3,21,32,10,27,24,20,15,,,,,,2.35,1.44,1.86*0E
$GPGSV,2,1,08,08,03,313,36,10,47,314,43,15,35,057,45,20,75,342,35*7C
$GPGSV,2,2,08,21,53,204,39,24,58,078,38,27,09,284,36,32,28,257,17*7D
$GPGLL,3732.59938,N,07619.93942,W,203735.00,A,A*7C
$GPGST,203735.00,33,,,,1.7,1.1,3.7*55
$GPRMC,203736.00,A,3732.59936,N,07619.93946,W,0.018,77.90,201018,10.96,W,A*3F
